{
"KLGA": {
    "iata": "LGA",
    "lon": -73.87259674,
    "lat": 40.77719879,
    "name": "La Guardia Airport",
    "state": "New York",
    "city": "New York"
},
"KDCA": {
    "iata": "DCA",
    "lon": -77.037697,
    "lat": 38.8521,
    "name": "Ronald Reagan Washington National Airport",
    "state": "Washington DC",
    "city": "Washington DC"
},
"CAA2": {
    "iata": "",
    "name": "St. Andre-Avellin",
    "city": "St. Andre Avellin",
    "state": "Quebec",
    "lat": 45.7463888889,
    "lon": -75.0758333333
},
"CAA8": {
    "iata": "",
    "name": "Invermere Airport",
    "city": "Invermere",
    "state": "British Columbia",
    "lat": 50.5167007446,
    "lon": -116
},
"CAD4": {
    "iata": "YZZ",
    "name": "Trail Airport",
    "city": "Trail",
    "state": "British Columbia",
    "lat": 49.0555992126,
    "lon": -117.60900116
},
"CAD5": {
    "iata": "",
    "name": "Merritt Airport",
    "city": "Merritt",
    "state": "British Columbia",
    "lat": 50.1227989197,
    "lon": -120.7470016479
},
"CAE4": {
    "iata": "",
    "name": "Tsacha Lake Airport",
    "city": "Tsacha Lake",
    "state": "British Columbia",
    "lat": 53.0167007446,
    "lon": -124.8330001831
},
"CAF4": {
    "iata": "",
    "name": "Tsuniah Lake Lodge Airport",
    "city": "Tsuniah Lake Lodge",
    "state": "British Columbia",
    "lat": 51.5332984924,
    "lon": -124.1669998169
},
"CAG2": {
    "iata": "",
    "name": "Regina / Aerogate",
    "city": "Brora",
    "state": "Saskatchewan",
    "lat": 50.5977310536,
    "lon": -104.601312876
},
"CAG3": {
    "iata": "",
    "name": "Chilko Lake (Tsylos Park Lodge) Airport",
    "city": "Chilko Lake",
    "state": "British Columbia",
    "lat": 51.6260986328,
    "lon": -124.141998291
},
"CAH3": {
    "iata": "",
    "name": "Courtenay Airpark",
    "city": "Courtenay",
    "state": "British Columbia",
    "lat": 49.6794013977,
    "lon": -124.9820022583
},
"CAH4": {
    "iata": "",
    "name": "Valemount Airport",
    "city": "Valemount",
    "state": "British Columbia",
    "lat": 52.8532981873,
    "lon": -119.3339996338
},
"CAJ2": {
    "iata": "",
    "name": "Wiley Airport",
    "city": "Eagle Plains",
    "state": "Yukon",
    "lat": 66.4910964966,
    "lon": -136.5729980469
},
"CAJ3": {
    "iata": "",
    "name": "Art Sutcliffe Field",
    "city": "Creston",
    "state": "British Columbia",
    "lat": 49.0368995667,
    "lon": -116.4980010986
},
"CAJ4": {
    "iata": "YAA",
    "name": "Anahim Lake Airport",
    "city": "Anahim Lake",
    "state": "British Columbia",
    "lat": 52.4524993896,
    "lon": -125.3030014038
},
"CAJ7": {
    "iata": "",
    "name": "Cayley A J Flying Ranch Airport",
    "city": "Cayley",
    "state": "Alberta",
    "lat": 50.4500007629,
    "lon": -113.75
},
"CAJ9": {
    "iata": "",
    "name": "Fort Ware Airport",
    "city": "Fort Ware",
    "state": "British Columbia",
    "lat": 57.4272003174,
    "lon": -125.6500015259
},
"CAK3": {
    "iata": "",
    "name": "Delta Heritage Air Park",
    "city": "Delta",
    "state": "British Columbia",
    "lat": 49.0774002075,
    "lon": -122.9410018921
},
"CAL3": {
    "iata": "DGF",
    "name": "Douglas Lake Airport",
    "city": "Douglas Lake",
    "state": "British Columbia",
    "lat": 50.1654600485,
    "lon": -120.171273351
},
"CAL4": {
    "iata": "JHL",
    "name": "Fort MacKay/Albian Aerodrome",
    "city": "Albian Village",
    "state": "Alberta",
    "lat": 57.2238998413,
    "lon": -111.418998718
},
"CAM3": {
    "iata": "DUQ",
    "name": "Duncan Airport",
    "city": "Duncan",
    "state": "British Columbia",
    "lat": 48.7545336204,
    "lon": -123.709702492
},
"CAM4": {
    "iata": "",
    "name": "Alhambra / Ahlstrom",
    "city": "",
    "state": "Alberta",
    "lat": 52.3461940388,
    "lon": -114.667525291
},
"CAM5": {
    "iata": "",
    "name": "Houston Airport",
    "city": "Houston",
    "state": "British Columbia",
    "lat": 54.4392009821,
    "lon": -126.778879166
},
"CAP3": {
    "iata": "",
    "name": "Sechelt-Gibsons Airport",
    "city": "Sechelt-Gibsons",
    "state": "British Columbia",
    "lat": 49.4606018066,
    "lon": -123.71900177
},
"CAP6": {
    "iata": "",
    "name": "Ingenika Airport",
    "city": "Ingenika",
    "state": "British Columbia",
    "lat": 56.790599823,
    "lon": -124.8970031738
},
"CAQ4": {
    "iata": "",
    "name": "Springhouse Airpark",
    "city": "Springhouse",
    "state": "British Columbia",
    "lat": 51.9556007385,
    "lon": -122.138999939
},
"CAQ5": {
    "iata": "",
    "name": "Nakusp Airport",
    "city": "Nakusp",
    "state": "British Columbia",
    "lat": 50.2663993835,
    "lon": -117.81300354
},
"CAR2": {
    "iata": "",
    "name": "Crawford Bay Airport",
    "city": "Crawford Bay",
    "state": "British Columbia",
    "lat": 49.6666984558,
    "lon": -116.8170013428
},
"CAR5": {
    "iata": "",
    "name": "Arthur (Arthur South)",
    "city": "",
    "state": "Ontario",
    "lat": 43.7827292694,
    "lon": -80.4329252243
},
"CAS2": {
    "iata": "",
    "name": "Moose Lake (Lodge) Airport",
    "city": "Moose Lake",
    "state": "British Columbia",
    "lat": 53.073299408,
    "lon": -125.408996582
},
"CAS3": {
    "iata": "",
    "name": "Barkerville Airport",
    "city": "Barkerville",
    "state": "British Columbia",
    "lat": 53.0881004333,
    "lon": -121.5149993896
},
"CAT1": {
    "iata": "",
    "name": "Atwood / Coghlin Airport",
    "city": "Atwood",
    "state": "Ontario",
    "lat": 43.6833000183,
    "lon": -81.0044021606
},
"CAT4": {
    "iata": "",
    "name": "Qualicum Beach Airport",
    "city": "Qualicum Beach",
    "state": "British Columbia",
    "lat": 49.3372001648,
    "lon": -124.3939971924
},
"CAT5": {
    "iata": "",
    "name": "Port Mcneill Airport",
    "city": "Port Mcneill",
    "state": "British Columbia",
    "lat": 50.5755996704,
    "lon": -127.0289993286
},
"CAU3": {
    "iata": "",
    "name": "Oliver Airport",
    "city": "Oliver",
    "state": "British Columbia",
    "lat": 49.1733016968,
    "lon": -119.5510025024
},
"CAU4": {
    "iata": "",
    "name": "Vanderhoof Airport",
    "city": "Vanderhoof",
    "state": "British Columbia",
    "lat": 54.0461006165,
    "lon": -124.0120010376
},
"CAV3": {
    "iata": "",
    "name": "One Hundred Mile House Airport",
    "city": "One Hundred Mile House",
    "state": "British Columbia",
    "lat": 51.6425018311,
    "lon": -121.3069992065
},
"CAV4": {
    "iata": "",
    "name": "Mcbride Airport",
    "city": "Mcbride",
    "state": "British Columbia",
    "lat": 53.3149986267,
    "lon": -120.1709976196
},
"CAV6": {
    "iata": "",
    "name": "Beausejour/Av-Ranch Airpark",
    "city": "",
    "state": "Manitoba",
    "lat": 50.041111,
    "lon": -96.585833
},
"CAV9": {
    "iata": "",
    "name": "Oak Hammock Air Park",
    "city": "Oak Hammock",
    "state": "Manitoba",
    "lat": 50.1377983093,
    "lon": -97.0614013672
},
"CAW3": {
    "iata": "",
    "name": "Scum Lake Airport",
    "city": "Scum Lake",
    "state": "British Columbia",
    "lat": 51.7999992371,
    "lon": -123.5830001831
},
"CAX2": {
    "iata": "",
    "name": "Axe Lake",
    "city": "",
    "state": "Saskatchewan",
    "lat": 57.2691650391,
    "lon": -109.8475036621
},
"CAX5": {
    "iata": "",
    "name": "Likely Airport",
    "city": "Likely",
    "state": "British Columbia",
    "lat": 52.6166992188,
    "lon": -121.5
},
"CAY2": {
    "iata": "",
    "name": "Gang Ranch Airport",
    "city": "Gang Ranch",
    "state": "British Columbia",
    "lat": 51.551700592,
    "lon": -122.327003479
},
"CAZ5": {
    "iata": "",
    "name": "Cache Creek-Ashcroft Regional Airport",
    "city": "Cache Creek",
    "state": "British Columbia",
    "lat": 50.7751091109,
    "lon": -121.321227551
},
"CBA8": {
    "iata": "",
    "name": "Beaverley Airport",
    "city": "Beaverley",
    "state": "British Columbia",
    "lat": 53.8555984497,
    "lon": -122.9079971313
},
"CBA9": {
    "iata": "",
    "name": "Ospika Airport",
    "city": "Ospika",
    "state": "British Columbia",
    "lat": 56.2750015259,
    "lon": -124.0520019531
},
"CBB7": {
    "iata": "",
    "name": "Tipella Airport",
    "city": "Tipella",
    "state": "British Columbia",
    "lat": 49.7430992126,
    "lon": -122.1630020142
},
"CBB9": {
    "iata": "",
    "name": "Osoyoos Airport",
    "city": "Osoyoos",
    "state": "British Columbia",
    "lat": 49.0372009277,
    "lon": -119.488998413
},
"CBBC": {
    "iata": "ZEL",
    "name": "Bella Bella (Campbell Island) Airport",
    "city": "Bella Bella",
    "state": "British Columbia",
    "lat": 52.1850013733,
    "lon": -128.1569976807
},
"CBC2": {
    "iata": "",
    "name": "Ford Bay Airport",
    "city": "Ford Bay",
    "state": "Northwest Territories",
    "lat": 66.0374984741,
    "lon": -124.7149963379
},
"CBD6": {
    "iata": "",
    "name": "Nahanni Butte Airport",
    "city": "Nahanni Butte",
    "state": "Northwest Territories",
    "lat": 61.0297012329,
    "lon": -123.388999939
},
"CBE2": {
    "iata": "",
    "name": "Elko Airport",
    "city": "Elko",
    "state": "British Columbia",
    "lat": 49.2832984924,
    "lon": -115.1500015259
},
"CBF2": {
    "iata": "",
    "name": "Belwood (Baird Field)",
    "city": "",
    "state": "Ontario",
    "lat": 43.808333333,
    "lon": -80.3119444444
},
"CBF9": {
    "iata": "",
    "name": "Mabel Lake Airport",
    "city": "Mabel Lake",
    "state": "British Columbia",
    "lat": 50.6088981628,
    "lon": -118.7310028076
},
"CBG2": {
    "iata": "",
    "name": "Green Lake Airport",
    "city": "Green Lake",
    "state": "British Columbia",
    "lat": 51.4294013977,
    "lon": -121.2099990845
},
"CBH2": {
    "iata": "",
    "name": "Helmet Airport",
    "city": "Helmet",
    "state": "British Columbia",
    "lat": 59.4258003235,
    "lon": -120.797996521
},
"CBH4": {
    "iata": "",
    "name": "Prairie Creek Airport",
    "city": "Prairie Creek",
    "state": "Northwest Territories",
    "lat": 61.5647010803,
    "lon": -124.8150024414
},
"CBJ4": {
    "iata": "",
    "name": "Echo Valley Airport",
    "city": "Echo Valley",
    "state": "British Columbia",
    "lat": 51.2416992188,
    "lon": -121.9940032959
},
"CBK6": {
    "iata": "",
    "name": "Quesnel Lake Airport",
    "city": "Quesnel Lake",
    "state": "British Columbia",
    "lat": 52.5149993896,
    "lon": -121.0449981689
},
"CBK7": {
    "iata": "",
    "name": "Mile 422 (Alaska Highway) Airport",
    "city": "Toad River",
    "state": "British Columbia",
    "lat": 58.8493995667,
    "lon": -125.2399978638
},
"CBL3": {
    "iata": "",
    "name": "Gordon Field",
    "city": "Fort Nelson",
    "state": "British Columbia",
    "lat": 58.8166999817,
    "lon": -122.7829971313
},
"CBL6": {
    "iata": "",
    "name": "Radium Hot Springs Airport",
    "city": "Radium Hot Springs",
    "state": "British Columbia",
    "lat": 50.6333007813,
    "lon": -116.0999984741
},
"CBL9": {
    "iata": "",
    "name": "Elkin Creek Guest Ranch Airport",
    "city": "Elkin Creek",
    "state": "British Columbia",
    "lat": 51.5127983093,
    "lon": -123.8040008545
},
"CBM5": {
    "iata": "",
    "name": "Telegraph Creek Airport",
    "city": "Telegraph Creek",
    "state": "British Columbia",
    "lat": 57.9166984558,
    "lon": -131.1170043945
},
"CBM6": {
    "iata": "",
    "name": "Midway Airport",
    "city": "Midway",
    "state": "British Columbia",
    "lat": 49.0099983215,
    "lon": -118.7900009155
},
"CBN9": {
    "iata": "",
    "name": "Tsay Keh Airport",
    "city": "Tsay Keh",
    "state": "British Columbia",
    "lat": 56.9061012268,
    "lon": -124.9649963379
},
"CBQ2": {
    "iata": "",
    "name": "Fort Langley Airport",
    "city": "Fort Langley",
    "state": "British Columbia",
    "lat": 49.1674995422,
    "lon": -122.5550003052
},
"CBQ7": {
    "iata": "",
    "name": "Kemess Creek Airport",
    "city": "Kemess Creek",
    "state": "British Columbia",
    "lat": 56.9743995667,
    "lon": -126.7409973145
},
"CBQ8": {
    "iata": "",
    "name": "Woodcock Airport",
    "city": "Woodcock",
    "state": "British Columbia",
    "lat": 55.0666999817,
    "lon": -128.233001709
},
"CBR2": {
    "iata": "",
    "name": "Kaslo Airport",
    "city": "Kaslo",
    "state": "British Columbia",
    "lat": 49.9035987854,
    "lon": -116.9349975586
},
"CBR4": {
    "iata": "",
    "name": "Clinton / Bleibler Ranch",
    "city": "Clinton",
    "state": "British Columbia",
    "lat": 51.2668021597,
    "lon": -121.685771942
},
"CBS4": {
    "iata": "",
    "name": "Mule Creek Airport",
    "city": "Mule Creek",
    "state": "British Columbia",
    "lat": 59.7855987549,
    "lon": -136.5829925537
},
"CBS7": {
    "iata": "",
    "name": "Briercrest South Airport",
    "city": "Briercrest South",
    "state": "Saskatchewan",
    "lat": 50.0663986206,
    "lon": -105.3010025024
},
"CBS8": {
    "iata": "",
    "name": "Port Alberni Airport",
    "city": "Port Alberni",
    "state": "British Columbia",
    "lat": 49.3218994141,
    "lon": -124.9309997559
},
"CBT3": {
    "iata": "",
    "name": "Tsetzi Lake (Pan Phillips) Airport",
    "city": "Tsetzi Lake",
    "state": "British Columbia",
    "lat": 52.9719009399,
    "lon": -125.0270004272
},
"CBT6": {
    "iata": "",
    "name": "Quilchena Airport",
    "city": "Quilchena",
    "state": "British Columbia",
    "lat": 50.1618895996,
    "lon": -120.507745743
},
"CBU2": {
    "iata": "",
    "name": "Eddontenajon / Iskut Village Airport",
    "city": "Eddontenajon",
    "state": "British Columbia",
    "lat": 57.847994155,
    "lon": -129.983968735
},
"CBW2": {
    "iata": "",
    "name": "Kitimat Airport",
    "city": "Kitimat",
    "state": "British Columbia",
    "lat": 54.163898468,
    "lon": -128.5809936523
},
"CBW3": {
    "iata": "",
    "name": "Fort Grahame Airport",
    "city": "Fort Graham",
    "state": "British Columbia",
    "lat": 56.5213877877,
    "lon": -124.470291138
},
"CBW4": {
    "iata": "",
    "name": "Bob Quinn Lake Airport",
    "city": "Bob Quinn Lake",
    "state": "British Columbia",
    "lat": 56.9667015076,
    "lon": -130.25
},
"CBW6": {
    "iata": "",
    "name": "Belwood (Wright Field)",
    "city": "",
    "state": "Ontario",
    "lat": 43.793888889,
    "lon": -80.4025
},
"CBW8": {
    "iata": "",
    "name": "Prince George (North Cariboo Air Park) Airport",
    "city": "Prince George",
    "state": "British Columbia",
    "lat": 54.0080986023,
    "lon": -123.0230026245
},
"CBX5": {
    "iata": "",
    "name": "Tungsten (Cantung) Airport",
    "city": "Tungsten",
    "state": "Northwest Territories",
    "lat": 61.9569015503,
    "lon": -128.2030029297
},
"CBX7": {
    "iata": "",
    "name": "Tumbler Ridge Airport",
    "city": "Tumbler Ridge",
    "state": "British Columbia",
    "lat": 55.0250015259,
    "lon": -120.9349975586
},
"CBZ9": {
    "iata": "",
    "name": "Fraser Lake Airport",
    "city": "Fraser Lake",
    "state": "British Columbia",
    "lat": 54.0133018494,
    "lon": -124.7679977417
},
"CCA3": {
    "iata": "",
    "name": "Cable Head Airpark",
    "city": "Cable Head",
    "state": "Prince Edward Island",
    "lat": 46.4432983398,
    "lon": -62.5928001404
},
"CCA6": {
    "iata": "YWM",
    "name": "Williams Harbour Airport",
    "city": "Williams Harbour",
    "state": "Newfoundland and Labrador",
    "lat": 52.5668983459,
    "lon": -55.7846984863
},
"CCA7": {
    "iata": "",
    "name": "Apple River Airport",
    "city": "Apple River",
    "state": "Nova Scotia",
    "lat": 45.4618988037,
    "lon": -64.8214035034
},
"CCC2": {
    "iata": "",
    "name": "Winterland Airport",
    "city": "Winterland",
    "state": "Newfoundland and Labrador",
    "lat": 47.1369018555,
    "lon": -55.3292007446
},
"CCD2": {
    "iata": "",
    "name": "Springdale Airport",
    "city": "Springdale",
    "state": "Newfoundland and Labrador",
    "lat": 49.4789009094,
    "lon": -56.1781005859
},
"CCD3": {
    "iata": "",
    "name": "Woodstock Airport",
    "city": "Woodstock",
    "state": "New Brunswick",
    "lat": 46.1522484697,
    "lon": -67.5452327728
},
"CCD4": {
    "iata": "",
    "name": "Postville Airport",
    "city": "Postville",
    "state": "Newfoundland and Labrador",
    "lat": 54.9105987549,
    "lon": -59.7867012024
},
"CCE2": {
    "iata": "",
    "name": "Mount Pleasant Airport",
    "city": "Mount Pleasant",
    "state": "Prince Edward Island",
    "lat": 46.5999984741,
    "lon": -64
},
"CCE3": {
    "iata": "",
    "name": "Juniper Airport",
    "city": "Juniper",
    "state": "New Brunswick",
    "lat": 46.5628013611,
    "lon": -67.168296814
},
"CCE4": {
    "iata": "",
    "name": "Black Tickle Airport",
    "city": "Black Tickle",
    "state": "Newfoundland and Labrador",
    "lat": 53.4693984985,
    "lon": -55.7849998474
},
"CCF4": {
    "iata": "",
    "name": "Porters Lake Airport",
    "city": "Porters Lake",
    "state": "Nova Scotia",
    "lat": 44.7099936874,
    "lon": -63.2996821404
},
"CCF6": {
    "iata": "",
    "name": "Edmonton/Morinville (Currie Field)",
    "city": "",
    "state": "Alberta",
    "lat": 53.819722,
    "lon": -113.760833
},
"CCF9": {
    "iata": "",
    "name": "Scottsfield Airpark",
    "city": "Scottsfield",
    "state": "New Brunswick",
    "lat": 45.9603004456,
    "lon": -67.0952987671
},
"CCG3": {
    "iata": "",
    "name": "Weyman Airpark",
    "city": "Burtt's Corner",
    "state": "New Brunswick",
    "lat": 46.0374984741,
    "lon": -66.8589019775
},
"CCG4": {
    "iata": "",
    "name": "Moncton / McEwen Airport",
    "city": "Moncton",
    "state": "New Brunswick",
    "lat": 46.1539001465,
    "lon": -64.7686004639
},
"CCH2": {
    "iata": "",
    "name": "Upper Kent Airport",
    "city": "",
    "state": "Maine",
    "lat": 46.587137287,
    "lon": -67.7195549011
},
"CCH4": {
    "iata": "",
    "name": "Charlottetown Airport",
    "city": "Charlottetown",
    "state": "Newfoundland and Labrador",
    "lat": 52.7649993896,
    "lon": -56.1156005859
},
"CCI9": {
    "iata": "",
    "name": "Cortes Island (Hansen Airfield) Airport",
    "city": "Cortes Island",
    "state": "British Columbia",
    "lat": 50.0203018188,
    "lon": -124.9840011597
},
"CCJ3": {
    "iata": "",
    "name": "Boston Brook Airport",
    "city": "Boston Brook",
    "state": "New Brunswick",
    "lat": 47.448600769,
    "lon": -67.6247024536
},
"CCK3": {
    "iata": "",
    "name": "Grand Falls Airport",
    "city": "Grand Falls",
    "state": "New Brunswick",
    "lat": 47.0750007629,
    "lon": -67.6849975586
},
"CCK4": {
    "iata": "YFX",
    "name": "St. Lewis (Fox Harbour) Airport",
    "city": "St. Lewis",
    "state": "Newfoundland and Labrador",
    "lat": 52.3727989197,
    "lon": -55.6739006042
},
"CCK5": {
    "iata": "",
    "name": "Owen Sound (Cook Field)",
    "city": "Owen Sound",
    "state": "Ontario",
    "lat": 44.6449639588,
    "lon": -80.7456064224
},
"CCL2": {
    "iata": "",
    "name": "Candle Lake Airpark",
    "city": "Candle Lake",
    "state": "Saskatchewan",
    "lat": 53.7682991028,
    "lon": -105.3079986572
},
"CCL3": {
    "iata": "",
    "name": "Christina Lake",
    "city": "",
    "state": "Alberta",
    "lat": 55.6283836075,
    "lon": -110.751113892
},
"CCM3": {
    "iata": "",
    "name": "Sevogle Airport",
    "city": "Sevogle",
    "state": "New Brunswick",
    "lat": 47.1910552979,
    "lon": -66.1606140137
},
"CCM4": {
    "iata": "",
    "name": "Port Au Choix Airport",
    "city": "Port Au Choix",
    "state": "Newfoundland and Labrador",
    "lat": 50.6888999939,
    "lon": -57.331401825
},
"CCN2": {
    "iata": "",
    "name": "Grand Manan Airport",
    "city": "Grand Manan",
    "state": "New Brunswick",
    "lat": 44.7132987976,
    "lon": -66.7964019775
},
"CCP2": {
    "iata": "",
    "name": "Exploits Valley Botwood Airport",
    "city": "Exploits Valley",
    "state": "Newfoundland and Labrador",
    "lat": 49.0559997559,
    "lon": -55.4477005005
},
"CCP3": {
    "iata": "",
    "name": "Chute-St-Philippe Airport",
    "city": "Chute-St-Philippe",
    "state": "Quebec",
    "lat": 46.6610984802,
    "lon": -75.2450027466
},
"CCP4": {
    "iata": "YHA",
    "name": "Port Hope Simpson Airport",
    "city": "Port Hope Simpson",
    "state": "Newfoundland and Labrador",
    "lat": 52.5280990601,
    "lon": -56.2860984802
},
"CCP6": {
    "iata": "",
    "name": "Caniapiscau Airport",
    "city": "Caniapiscau",
    "state": "Quebec",
    "lat": 54.8377990723,
    "lon": -69.8927993774
},
"CCQ3": {
    "iata": "",
    "name": "Debert Airport",
    "city": "Debert",
    "state": "Nova Scotia",
    "lat": 45.418598175,
    "lon": -63.4606018066
},
"CCR3": {
    "iata": "",
    "name": "Florenceville Airport",
    "city": "Florenceville",
    "state": "New Brunswick",
    "lat": 46.4261016846,
    "lon": -67.6280975342
},
"CCS3": {
    "iata": "",
    "name": "St. Stephen Airport",
    "city": "St. Stephen",
    "state": "New Brunswick",
    "lat": 45.2075004578,
    "lon": -67.2506027222
},
"CCS4": {
    "iata": "",
    "name": "Chipman Airport",
    "city": "Chipman",
    "state": "New Brunswick",
    "lat": 46.148601532,
    "lon": -65.9041976929
},
"CCS5": {
    "iata": "",
    "name": "Havelock Airport",
    "city": "Havelock",
    "state": "New Brunswick",
    "lat": 45.9864006042,
    "lon": -65.301902771
},
"CCS6": {
    "iata": "",
    "name": "Courtenay (Smit Field) Airport",
    "city": "Courtenay",
    "state": "British Columbia",
    "lat": 49.6824989319,
    "lon": -125.1009979248
},
"CCT2": {
    "iata": "",
    "name": "Cookstown Airport",
    "city": "Cookstown",
    "state": "Ontario",
    "lat": 44.238899231,
    "lon": -79.6389007568
},
"CCV4": {
    "iata": "",
    "name": "Bell Island Airport",
    "city": "Bell Island",
    "state": "Newfoundland and Labrador",
    "lat": 47.6333007813,
    "lon": -52.9832992554
},
"CCW3": {
    "iata": "",
    "name": "Waterville / Kings County Municipal Airport",
    "city": "Waterville",
    "state": "Nova Scotia",
    "lat": 45.0518989563,
    "lon": -64.6517028809
},
"CCW4": {
    "iata": "",
    "name": "Stanley Airport",
    "city": "Stanley",
    "state": "Nova Scotia",
    "lat": 45.1006011963,
    "lon": -63.9206008911
},
"CCX3": {
    "iata": "",
    "name": "Brockway Airport",
    "city": "Brockway",
    "state": "New Brunswick",
    "lat": 45.5666999817,
    "lon": -67.0999984741
},
"CCY3": {
    "iata": "",
    "name": "Sussex Airport",
    "city": "Sussex",
    "state": "New Brunswick",
    "lat": 45.6899986267,
    "lon": -65.5400009155
},
"CCY4": {
    "iata": "",
    "name": "East Gore Eco Airpark",
    "city": "East Gore",
    "state": "Nova Scotia",
    "lat": 45.1175003052,
    "lon": -63.7028007507
},
"CCZ2": {
    "iata": "YRG",
    "name": "Rigolet Airport",
    "city": "Rigolet",
    "state": "Newfoundland and Labrador",
    "lat": 54.1796989441,
    "lon": -58.4575004578
},
"CCZ3": {
    "iata": "",
    "name": "Clarenville Airport",
    "city": "Clarenville",
    "state": "Newfoundland and Labrador",
    "lat": 48.2747001648,
    "lon": -53.9239006042
},
"CCZ4": {
    "iata": "",
    "name": "Margaree Airport",
    "city": "Margaree",
    "state": "Nova Scotia",
    "lat": 46.3410987854,
    "lon": -60.9796981812
},
"CCZ5": {
    "iata": "",
    "name": "Thorburn Airport",
    "city": "Thorburn",
    "state": "Nova Scotia",
    "lat": 45.5606002808,
    "lon": -62.5946998596
},
"CDA3": {
    "iata": "",
    "name": "Valley Airport",
    "city": "Valley",
    "state": "Nova Scotia",
    "lat": 45.3967018127,
    "lon": -63.2155990601
},
"CDA4": {
    "iata": "",
    "name": "Pokemouche Airport",
    "city": "Pokemouche",
    "state": "New Brunswick",
    "lat": 47.7164001465,
    "lon": -64.8824996948
},
"CDA5": {
    "iata": "",
    "name": "St. Andrews Codroy Valley Airport",
    "city": "St. Andrews",
    "state": "Newfoundland and Labrador",
    "lat": 47.773601532,
    "lon": -59.3130989075
},
"CDA6": {
    "iata": "",
    "name": "Bristol Airport",
    "city": "Bristol",
    "state": "New Brunswick",
    "lat": 46.459400177,
    "lon": -67.5646972656
},
"CDC3": {
    "iata": "",
    "name": "Dawson Creek (Flying L Ranch) Airport",
    "city": "Dawson Creek",
    "state": "British Columbia",
    "lat": 55.8194885254,
    "lon": -120.4602813721
},
"CDC4": {
    "iata": "",
    "name": "St-Quentin Airport",
    "city": "St-Quentin",
    "state": "New Brunswick",
    "lat": 47.5210990906,
    "lon": -67.4210968018
},
"CDD3": {
    "iata": "",
    "name": "Ste-Agnes-de-Dundee Airport",
    "city": "Ste-Agnes-de-Dundee",
    "state": "Quebec",
    "lat": 45.0475006104,
    "lon": -74.3432998657
},
"CDF3": {
    "iata": "",
    "name": "Englehart (Dave's Field)",
    "city": "Englehart",
    "state": "Ontario",
    "lat": 47.809722223,
    "lon": -79.8111111111
},
"CDG3": {
    "iata": "",
    "name": "Dungannon",
    "city": "",
    "state": "Ontario",
    "lat": 43.836389,
    "lon": -81.606667
},
"CDH1": {
    "iata": "",
    "name": "Deerhurst Resort Airport",
    "city": "Huntsville",
    "state": "Ontario",
    "lat": 45.3541984558,
    "lon": -79.1513977051
},
"CDH3": {
    "iata": "",
    "name": "Finlay Air Park",
    "city": "Finlay",
    "state": "Nova Scotia",
    "lat": 43.9622001648,
    "lon": -65.9942016602
},
"CDJ4": {
    "iata": "",
    "name": "Clearwater Airport",
    "city": "Clearwater",
    "state": "New Brunswick",
    "lat": 46.7132987976,
    "lon": -66.8283004761
},
"CDJ5": {
    "iata": "",
    "name": "Strathmore (D.J. Murray) Airport",
    "city": "Strathmore",
    "state": "Alberta",
    "lat": 51.1319007874,
    "lon": -113.5599975586
},
"CDK2": {
    "iata": "DVK",
    "name": "Diavik Airport",
    "city": "Diavik",
    "state": "Northwest Territories",
    "lat": 64.5113983154,
    "lon": -110.289001465
},
"CDO2": {
    "iata": "",
    "name": "Ostergard's Airport",
    "city": "Drumheller",
    "state": "Alberta",
    "lat": 51.2943992615,
    "lon": -112.6139984131
},
"CDT5": {
    "iata": "",
    "name": "Buctouche Airport",
    "city": "Buctouche",
    "state": "New Brunswick",
    "lat": 46.5093994141,
    "lon": -64.693901062
},
"CDU6": {
    "iata": "",
    "name": "Doaktown Airport",
    "city": "Doaktown",
    "state": "New Brunswick",
    "lat": 46.5525016785,
    "lon": -66.0939025879
},
"CDU9": {
    "iata": "",
    "name": "Dunnville Airport",
    "city": "Dunnville",
    "state": "Ontario",
    "lat": 42.8722000122,
    "lon": -79.5958023071
},
"CDV2": {
    "iata": "",
    "name": "Downs Gulch Airport",
    "city": "Downs Gulch",
    "state": "New Brunswick",
    "lat": 47.7536010742,
    "lon": -67.4261016846
},
"CDW2": {
    "iata": "",
    "name": "Baddeck (Crown Jewel) Airport",
    "city": "Baddeck",
    "state": "Nova Scotia",
    "lat": 46.1650009155,
    "lon": -60.7839012146
},
"CDY3": {
    "iata": "",
    "name": "Fogo Airport",
    "city": "Fogo",
    "state": "Newfoundland and Labrador",
    "lat": 49.6575012207,
    "lon": -54.2374992371
},
"CDY6": {
    "iata": "",
    "name": "Bridgewater / Dayspring Airpark",
    "city": "Bridgewater",
    "state": "Nova Scotia",
    "lat": 44.3819007874,
    "lon": -64.456703186
},
"CEA3": {
    "iata": "",
    "name": "Olds-Didsbury Airport",
    "city": "Olds-Didsbury",
    "state": "Alberta",
    "lat": 51.7118988037,
    "lon": -114.107002258
},
"CEA5": {
    "iata": "",
    "name": "Hardisty Airport",
    "city": "Hardisty",
    "state": "Alberta",
    "lat": 52.646900177,
    "lon": -111.3840026855
},
"CEA6": {
    "iata": "",
    "name": "Cardston Airport",
    "city": "Cardston",
    "state": "Alberta",
    "lat": 49.1624984741,
    "lon": -113.2409973145
},
"CEB3": {
    "iata": "YCK",
    "name": "Colville Lake Airport",
    "city": "Colville Lake",
    "state": "Northwest Territories",
    "lat": 67.0333023071,
    "lon": -126.0830001831
},
"CEB5": {
    "iata": "",
    "name": "Fairview Airport",
    "city": "Fairview",
    "state": "Alberta",
    "lat": 56.081401825,
    "lon": -118.4349975586
},
"CEC3": {
    "iata": "",
    "name": "Fox Lake Airport",
    "city": "Fox Lake",
    "state": "Alberta",
    "lat": 58.4733009338,
    "lon": -114.5429992676
},
"CEC4": {
    "iata": "",
    "name": "Hinton / Jasper-Hinton Airport",
    "city": "Hinton",
    "state": "Alberta",
    "lat": 53.3191986084,
    "lon": -117.752998352
},
"CED3": {
    "iata": "",
    "name": "Oyen Municipal Airport",
    "city": "Oyen",
    "state": "Alberta",
    "lat": 51.3342018127,
    "lon": -110.4909973145
},
"CED4": {
    "iata": "",
    "name": "Fox Creek Airport",
    "city": "Fox Creek",
    "state": "Alberta",
    "lat": 54.3800010681,
    "lon": -116.7659988403
},
"CED5": {
    "iata": "",
    "name": "Taber Airport",
    "city": "Taber",
    "state": "Alberta",
    "lat": 49.8266983032,
    "lon": -112.1849975586
},
"CED6": {
    "iata": "",
    "name": "Highwood Airport",
    "city": "De Winton",
    "state": "Alberta",
    "lat": 50.8018989563,
    "lon": -113.888999939
},
"CEE4": {
    "iata": "",
    "name": "Hinton / Entrance Airport",
    "city": "Hinton",
    "state": "Alberta",
    "lat": 53.381401062,
    "lon": -117.700996399
},
"CEE5": {
    "iata": "",
    "name": "Wabasca Airport",
    "city": "Wabasca",
    "state": "Alberta",
    "lat": 55.9618988037,
    "lon": -113.819000244
},
"CEE6": {
    "iata": "",
    "name": "Edmonton / Twin Island Airpark",
    "city": "Edmonton",
    "state": "Alberta",
    "lat": 53.4710998535,
    "lon": -113.153999329
},
"CEE8": {
    "iata": "",
    "name": "Viking Airport",
    "city": "Viking",
    "state": "Alberta",
    "lat": 53.1089685346,
    "lon": -111.864938736
},
"CEF2": {
    "iata": "",
    "name": "Belwood (Ellen Field)",
    "city": "",
    "state": "Ontario",
    "lat": 43.8372354306,
    "lon": -80.3694534302
},
"CEF3": {
    "iata": "",
    "name": "Bow Island Airport",
    "city": "Bow Island",
    "state": "Alberta",
    "lat": 49.8833007813,
    "lon": -111.3330001831
},
"CEF4": {
    "iata": "",
    "name": "Airdrie Airport",
    "city": "Airdrie",
    "state": "Alberta",
    "lat": 51.2639007568,
    "lon": -113.9339981079
},
"CEF6": {
    "iata": "",
    "name": "Forestburg Airport",
    "city": "Forestburg",
    "state": "Alberta",
    "lat": 52.5746994019,
    "lon": -112.0839996338
},
"CEG2": {
    "iata": "",
    "name": "Acme Airport",
    "city": "Acme",
    "state": "Alberta",
    "lat": 51.456401825,
    "lon": -113.5149993896
},
"CEG3": {
    "iata": "",
    "name": "Lacombe Airport",
    "city": "Lacombe",
    "state": "Alberta",
    "lat": 52.4883003235,
    "lon": -113.7119979858
},
"CEG4": {
    "iata": "",
    "name": "Drumheller Municipal Airport",
    "city": "Drumheller",
    "state": "Alberta",
    "lat": 51.4963989258,
    "lon": -112.7490005493
},
"CEG5": {
    "iata": "",
    "name": "Chipewyan Lake Airport",
    "city": "Chipewyan Lake",
    "state": "Alberta",
    "lat": 56.9524993896,
    "lon": -113.4960021973
},
"CEG8": {
    "iata": "",
    "name": "North Seal River Airport",
    "city": "North Seal River",
    "state": "Manitoba",
    "lat": 58.9693984985,
    "lon": -99.9749984741
},
"CEH2": {
    "iata": "",
    "name": "Cu Nim Airport",
    "city": "Black Diamond",
    "state": "Alberta",
    "lat": 50.7224998474,
    "lon": -114.1790008545
},
"CEH3": {
    "iata": "",
    "name": "Ponoka Industrial Airport",
    "city": "Ponoka Industrial",
    "state": "Alberta",
    "lat": 52.6516990662,
    "lon": -113.6060028076
},
"CEH4": {
    "iata": "",
    "name": "De Winton South Calgary Airport",
    "city": "De Winton",
    "state": "Alberta",
    "lat": 50.8218994141,
    "lon": -113.8239974976
},
"CEH5": {
    "iata": "",
    "name": "Red Earth Creek Airport",
    "city": "Red Earth Creek",
    "state": "Alberta",
    "lat": 56.5463981628,
    "lon": -115.2740020752
},
"CEH6": {
    "iata": "",
    "name": "Provost Airport",
    "city": "Provost",
    "state": "Alberta",
    "lat": 52.3381004333,
    "lon": -110.2789993286
},
"CEJ3": {
    "iata": "",
    "name": "Stettler Airport",
    "city": "Stettler",
    "state": "Alberta",
    "lat": 52.3100013733,
    "lon": -112.7539978027
},
"CEJ4": {
    "iata": "",
    "name": "Claresholm Industrial Airport",
    "city": "Claresholm",
    "state": "Alberta",
    "lat": 50.004699707,
    "lon": -113.6299972534
},
"CEJ6": {
    "iata": "",
    "name": "Elk Point Airport",
    "city": "Elk Point",
    "state": "Alberta",
    "lat": 53.8931007385,
    "lon": -110.7720031738
},
"CEK2": {
    "iata": "",
    "name": "Braeburn Airport",
    "city": "Braeburn",
    "state": "Yukon",
    "lat": 61.4844017029,
    "lon": -135.7760009766
},
"CEK6": {
    "iata": "",
    "name": "Killam-Sedgewick Airport",
    "city": "Killam",
    "state": "Alberta",
    "lat": 52.7999992371,
    "lon": -111.766998291
},
"CEL3": {
    "iata": "",
    "name": "East Linton (Kerr Field)",
    "city": "",
    "state": "Ontario",
    "lat": 44.6610679784,
    "lon": -80.9440255165
},
"CEL4": {
    "iata": "",
    "name": "Hanna Airport",
    "city": "Hanna",
    "state": "Alberta",
    "lat": 51.631401062,
    "lon": -111.9039993286
},
"CEL5": {
    "iata": "",
    "name": "Valleyview Airport",
    "city": "Valleyview",
    "state": "Alberta",
    "lat": 55.0325012207,
    "lon": -117.2959976196
},
"CEL6": {
    "iata": "",
    "name": "Two Hills Airport",
    "city": "Two Hills",
    "state": "Alberta",
    "lat": 53.7000007629,
    "lon": -111.7829971313
},
"CEL8": {
    "iata": "",
    "name": "Eleonore",
    "city": "",
    "state": "Quebec",
    "lat": 52.718306623,
    "lon": -76.0798072815
},
"CEM3": {
    "iata": "YLE",
    "name": "Whati Airport",
    "city": "Whati",
    "state": "Northwest Territories",
    "lat": 63.1316986084,
    "lon": -117.2460021973
},
"CEM4": {
    "iata": "",
    "name": "Innisfail Airport",
    "city": "Innisfail",
    "state": "Alberta",
    "lat": 52.0786018372,
    "lon": -114.0270004272
},
"CEM5": {
    "iata": "",
    "name": "Swan Hills Airport",
    "city": "Swan Hills",
    "state": "Alberta",
    "lat": 54.6707992554,
    "lon": -115.4150009155
},
"CEN2": {
    "iata": "",
    "name": "Bassano Airport",
    "city": "Bassano",
    "state": "Alberta",
    "lat": 50.7999992371,
    "lon": -112.4670028687
},
"CEN3": {
    "iata": "",
    "name": "Three Hills Airport",
    "city": "Three Hills",
    "state": "Alberta",
    "lat": 51.6967010498,
    "lon": -113.2089996338
},
"CEN4": {
    "iata": "",
    "name": "High River Airport",
    "city": "High River",
    "state": "Alberta",
    "lat": 50.5332984924,
    "lon": -113.8330001831
},
"CEN5": {
    "iata": "",
    "name": "Cold Lake Regional Airport",
    "city": "Cold Lake",
    "state": "Alberta",
    "lat": 54.4775009155,
    "lon": -110.2689971924
},
"CEN6": {
    "iata": "",
    "name": "Vauxhall Airport",
    "city": "Vauxhall",
    "state": "Alberta",
    "lat": 50.0332984924,
    "lon": -112.0830001831
},
"CEP3": {
    "iata": "",
    "name": "Barrhead Airport",
    "city": "Barrhead",
    "state": "Alberta",
    "lat": 54.0999984741,
    "lon": -114.4329986572
},
"CEP4": {
    "iata": "",
    "name": "Ross International Airport",
    "city": "Coutts",
    "state": "Montana",
    "lat": 49,
    "lon": -111.9670028687
},
"CEP5": {
    "iata": "",
    "name": "Janvier Airport",
    "city": "Janvier",
    "state": "Alberta",
    "lat": 55.9000015259,
    "lon": -110.733001709
},
"CEP6": {
    "iata": "",
    "name": "Warner Airport",
    "city": "Warner",
    "state": "Alberta",
    "lat": 49.2933006287,
    "lon": -112.1890029907
},
"CEQ3": {
    "iata": "",
    "name": "Camrose Airport",
    "city": "Camrose",
    "state": "Alberta",
    "lat": 53.0402984619,
    "lon": -112.8160018921
},
"CEQ4": {
    "iata": "",
    "name": "Del Bonita / Whetstone International Airport",
    "city": "Del Bonita",
    "state": "Montana",
    "lat": 48.9986000061,
    "lon": -112.776000977
},
"CEQ5": {
    "iata": "",
    "name": "Grande Cache Airport",
    "city": "Grande Cache",
    "state": "Alberta",
    "lat": 53.9169006348,
    "lon": -118.8740005493
},
"CER2": {
    "iata": "",
    "name": "Castor Airport",
    "city": "Castor",
    "state": "Alberta",
    "lat": 52.2209249248,
    "lon": -111.926887035
},
"CER3": {
    "iata": "",
    "name": "Drayton Valley Industrial Airport",
    "city": "Drayton Valley",
    "state": "Alberta",
    "lat": 53.2658004761,
    "lon": -114.9599990845
},
"CER4": {
    "iata": "NML",
    "name": "Fort McMurray / Mildred Lake Airport",
    "city": "Fort McMurray",
    "state": "Alberta",
    "lat": 57.0555992126,
    "lon": -111.573997498
},
"CES2": {
    "iata": "",
    "name": "St-Esprit",
    "city": "",
    "state": "Quebec",
    "lat": 45.914399704,
    "lon": -73.6723959446
},
"CES4": {
    "iata": "",
    "name": "Westlock Airport",
    "city": "Westlock",
    "state": "Alberta",
    "lat": 54.14220047,
    "lon": -113.7409973145
},
"CET2": {
    "iata": "",
    "name": "Conklin (Leismer) Airport",
    "city": "Conklin",
    "state": "Alberta",
    "lat": 55.6953010559,
    "lon": -111.2789993286
},
"CET4": {
    "iata": "",
    "name": "Fort Simpson Island Airport",
    "city": "Fort Simpson Island",
    "state": "Northwest Territories",
    "lat": 61.8666992188,
    "lon": -121.3659973145
},
"CET9": {
    "iata": "",
    "name": "Jean Marie River Airport",
    "city": "Jean Marie River",
    "state": "Northwest Territories",
    "lat": 61.5167007446,
    "lon": -120.6169967651
},
"CEU2": {
    "iata": "",
    "name": "Beaverlodge Airport",
    "city": "Beaverlodge",
    "state": "Alberta",
    "lat": 55.1842002869,
    "lon": -119.4479980469
},
"CEU9": {
    "iata": "",
    "name": "Trout Lake Airport",
    "city": "Trout Lake",
    "state": "Northwest Territories",
    "lat": 60.4393997192,
    "lon": -121.2369995117
},
"CEV2": {
    "iata": "",
    "name": "Edra Airport",
    "city": "Edra",
    "state": "Alberta",
    "lat": 57.8499984741,
    "lon": -113.25
},
"CEV3": {
    "iata": "",
    "name": "Vegreville Airport",
    "city": "Vegreville",
    "state": "Alberta",
    "lat": 53.5144004822,
    "lon": -112.0270004272
},
"CEV5": {
    "iata": "",
    "name": "Mayerthorpe Airport",
    "city": "Mayerthorpe",
    "state": "Alberta",
    "lat": 53.9375,
    "lon": -115.1790008545
},
"CEV7": {
    "iata": "",
    "name": "Tofield Airport",
    "city": "Tofield",
    "state": "Alberta",
    "lat": 53.3711013794,
    "lon": -112.6969985962
},
"CEV9": {
    "iata": "",
    "name": "Snare River Airport",
    "city": "Snare River",
    "state": "Northwest Territories",
    "lat": 63.4333000183,
    "lon": -116.1829986572
},
"CEW3": {
    "iata": "ZSP",
    "name": "St. Paul Airport",
    "city": "St. Paul",
    "state": "Alberta",
    "lat": 53.9933013916,
    "lon": -111.379997253
},
"CEW5": {
    "iata": "",
    "name": "Milk River Airport",
    "city": "Milk River",
    "state": "Alberta",
    "lat": 49.1333007813,
    "lon": -112.0500030518
},
"CEX3": {
    "iata": "",
    "name": "Wetaskiwin Regional Airport",
    "city": "Wetaskiwin",
    "state": "Alberta",
    "lat": 52.9650001526,
    "lon": -113.411003113
},
"CEX4": {
    "iata": "",
    "name": "Carmacks Airport",
    "city": "Carmacks",
    "state": "Yukon",
    "lat": 62.1081008911,
    "lon": -136.1799926758
},
"CEX9": {
    "iata": "",
    "name": "Brant (Dixon Farm) Airport",
    "city": "Brant",
    "state": "Alberta",
    "lat": 50.4193992615,
    "lon": -113.5410003662
},
"CEY3": {
    "iata": "",
    "name": "Fort Macleod Airport",
    "city": "Fort Macleod",
    "state": "Alberta",
    "lat": 49.7000007629,
    "lon": -113.4169998169
},
"CEZ2": {
    "iata": "",
    "name": "Chapman Lake Airport",
    "city": "Chapman Lake",
    "state": "Yukon",
    "lat": 64.9000015259,
    "lon": -138.266998291
},
"CEZ3": {
    "iata": "",
    "name": "Edmonton / Cooking Lake Airport",
    "city": "Edmonton",
    "state": "Alberta",
    "lat": 53.4275016785,
    "lon": -113.115997314
},
"CEZ4": {
    "iata": "",
    "name": "Fort Vermilion Airport",
    "city": "Fort Vermilion",
    "state": "Alberta",
    "lat": 58.4042015076,
    "lon": -115.9509963989
},
"CFA4": {
    "iata": "",
    "name": "Carcross Airport",
    "city": "Carcross",
    "state": "Yukon",
    "lat": 60.1741981506,
    "lon": -134.6979980469
},
"CFA5": {
    "iata": "",
    "name": "Grande Airport",
    "city": "Grande",
    "state": "Alberta",
    "lat": 56.2999992371,
    "lon": -112.233001709
},
"CFA7": {
    "iata": "",
    "name": "Taltheilei Narrows Airport",
    "city": "Taltheilei Narrows",
    "state": "Northwest Territories",
    "lat": 62.5980987549,
    "lon": -111.5429992676
},
"CFB3": {
    "iata": "",
    "name": "Hespero Airport",
    "city": "Hespero",
    "state": "Alberta",
    "lat": 52.2999992371,
    "lon": -114.4639968872
},
"CFB4": {
    "iata": "",
    "name": "Trout Lake Airport",
    "city": "Trout Lake",
    "state": "Alberta",
    "lat": 56.5,
    "lon": -114.5500030518
},
"CFB5": {
    "iata": "",
    "name": "Namur Lake Airport",
    "city": "Namur Lake",
    "state": "Alberta",
    "lat": 57.3833007813,
    "lon": -112.8000030518
},
"CFB6": {
    "iata": "",
    "name": "Edmonton / Josephburg Airport",
    "city": "Edmonton",
    "state": "Alberta",
    "lat": 53.727998032,
    "lon": -113.086566925
},
"CFB7": {
    "iata": "",
    "name": "Steen River Airport",
    "city": "Steen River",
    "state": "Alberta",
    "lat": 59.6333007813,
    "lon": -117.1669998169
},
"CFC4": {
    "iata": "",
    "name": "Macmillan Pass Airport",
    "city": "Macmillan Pass",
    "state": "Yukon",
    "lat": 63.181098938,
    "lon": -130.2019958496
},
"CFC6": {
    "iata": "",
    "name": "Rockyford Airport",
    "city": "Rockyford",
    "state": "Alberta",
    "lat": 51.2667007446,
    "lon": -113.1169967651
},
"CFC7": {
    "iata": "",
    "name": "Rimbey Airport",
    "city": "Rimbey",
    "state": "Alberta",
    "lat": 52.6819000244,
    "lon": -114.2379989624
},
"CFD4": {
    "iata": "",
    "name": "Foremost Airport",
    "city": "Foremost",
    "state": "Alberta",
    "lat": 49.4831008911,
    "lon": -111.4940032959
},
"CFD5": {
    "iata": "",
    "name": "Grimshaw Airport",
    "city": "Grimshaw",
    "state": "Alberta",
    "lat": 56.19611,
    "lon": -117.625278
},
"CFD9": {
    "iata": "",
    "name": "Bjorgum Farm Airport",
    "city": "Bjorgum Farm",
    "state": "Alberta",
    "lat": 53.0833015442,
    "lon": -112.8030014038
},
"CFF2": {
    "iata": "",
    "name": "Christina Basin Airport",
    "city": "Christina Basin",
    "state": "Alberta",
    "lat": 55.5900001526,
    "lon": -111.8229980469
},
"CFF3": {
    "iata": "",
    "name": "Jean Lake Airport",
    "city": "Jean Lake",
    "state": "Alberta",
    "lat": 57.4832992554,
    "lon": -113.8830032349
},
"CFF4": {
    "iata": "DAS",
    "name": "Great Bear Lake Airport",
    "city": "Great Bear Lake",
    "state": "Northwest Territories",
    "lat": 66.7031021118,
    "lon": -119.707000732
},
"CFF9": {
    "iata": "",
    "name": "Marek Farms Airport",
    "city": "Marek Farms",
    "state": "Alberta",
    "lat": 53.0313987732,
    "lon": -112.7779998779
},
"CFG3": {
    "iata": "",
    "name": "Consort Airport",
    "city": "Consort",
    "state": "Alberta",
    "lat": 52.0167007446,
    "lon": -110.75
},
"CFG4": {
    "iata": "",
    "name": "Debolt Airport",
    "city": "Debolt",
    "state": "Alberta",
    "lat": 55.2332992554,
    "lon": -118.0329971313
},
"CFG5": {
    "iata": "",
    "name": "John D'Or Prairie Airport",
    "city": "John D'Or Prairie",
    "state": "Alberta",
    "lat": 58.4914016724,
    "lon": -115.1380004883
},
"CFG6": {
    "iata": "YFI",
    "name": "Fort Mackay / Firebag",
    "city": "Suncor Energy Site",
    "state": "Alberta",
    "lat": 57.2758333344,
    "lon": -110.976666667
},
"CFG7": {
    "iata": "",
    "name": "Steen Tower Airport",
    "city": "Steen Tower",
    "state": "Alberta",
    "lat": 59.6333007813,
    "lon": -117.7829971313
},
"CFH4": {
    "iata": "",
    "name": "Fox Harbour Airport",
    "city": "Fox Harbour",
    "state": "Nova Scotia",
    "lat": 45.8699989319,
    "lon": -63.461101532
},
"CFH8": {
    "iata": "",
    "name": "Warburg / Zajes Airport",
    "city": "Warburg",
    "state": "Alberta",
    "lat": 53.2177775261,
    "lon": -114.336605072
},
"CFK2": {
    "iata": "",
    "name": "Bashaw Airport",
    "city": "Bashaw",
    "state": "Alberta",
    "lat": 52.5574989319,
    "lon": -112.9649963379
},
"CFK3": {
    "iata": "",
    "name": "Fontas Airport",
    "city": "Fontas",
    "state": "Alberta",
    "lat": 57.7999992371,
    "lon": -119.4499969482
},
"CFK4": {
    "iata": "",
    "name": "Calling Lake Airport",
    "city": "Calling Lake",
    "state": "Alberta",
    "lat": 55.3166999817,
    "lon": -113.25
},
"CFK6": {
    "iata": "",
    "name": "Olds (Netook) Airport",
    "city": "Olds",
    "state": "Alberta",
    "lat": 51.8499984741,
    "lon": -114.0670013428
},
"CFL2": {
    "iata": "",
    "name": "Empress McNeill Spectra Energy Airport",
    "city": "Empress",
    "state": "Alberta",
    "lat": 50.6824989319,
    "lon": -110.041999817
},
"CFL9": {
    "iata": "",
    "name": "Johnson Lake Airport",
    "city": "Johnson Lake",
    "state": "Alberta",
    "lat": 57.5666999817,
    "lon": -110.3170013428
},
"CFM2": {
    "iata": "",
    "name": "Birch Mountain Airport",
    "city": "Birch Mountain",
    "state": "Alberta",
    "lat": 57.7000007629,
    "lon": -111.8330001831
},
"CFM4": {
    "iata": "",
    "name": "Donnelly Airport",
    "city": "Donnelly",
    "state": "Alberta",
    "lat": 55.709400177,
    "lon": -117.09400177
},
"CFM5": {
    "iata": "",
    "name": "Hamburg Airport",
    "city": "Apache",
    "state": "Alberta",
    "lat": 57.3552844682,
    "lon": -119.765310287
},
"CFM6": {
    "iata": "",
    "name": "Teepee Airport",
    "city": "Teepee",
    "state": "Alberta",
    "lat": 56.459400177,
    "lon": -114.1190032959
},
"CFM7": {
    "iata": "",
    "name": "Boyle Airport",
    "city": "Boyle",
    "state": "Alberta",
    "lat": 54.573299408,
    "lon": -112.8199996948
},
"CFM8": {
    "iata": "",
    "name": "Fort Macleod (Alcock Farm) Airport",
    "city": "Fort Macleod",
    "state": "Alberta",
    "lat": 49.5833015442,
    "lon": -113.3000030518
},
"CFN5": {
    "iata": "",
    "name": "La Crete Airport",
    "city": "La Crete",
    "state": "Alberta",
    "lat": 58.1728751982,
    "lon": -116.337919235
},
"CFN7": {
    "iata": "",
    "name": "Sundre Airport",
    "city": "Sundre",
    "state": "Alberta",
    "lat": 51.7742004395,
    "lon": -114.6770019531
},
"CFP4": {
    "iata": "",
    "name": "Mcquesten Airport",
    "city": "Mcquesten",
    "state": "Yukon",
    "lat": 63.5999984741,
    "lon": -137.5670013428
},
"CFP5": {
    "iata": "",
    "name": "Glendon Airport",
    "city": "Glendon",
    "state": "Alberta",
    "lat": 54.2708015442,
    "lon": -111.0670013428
},
"CFP6": {
    "iata": "",
    "name": "La Biche River Airport",
    "city": "La Biche River",
    "state": "Yukon",
    "lat": 60.1291999817,
    "lon": -124.0490036011
},
"CFP7": {
    "iata": "",
    "name": "Wainwright Field 21 Airport",
    "city": "Wainwright",
    "state": "Alberta",
    "lat": 52.8306007385,
    "lon": -111.100997925
},
"CFP8": {
    "iata": "",
    "name": "Whitehorse / Cousins Airport",
    "city": "Whitehorse",
    "state": "Yukon",
    "lat": 60.8117343999,
    "lon": -135.182132721
},
"CFQ3": {
    "iata": "",
    "name": "Milk River (Madge) Airport",
    "city": "Milk River",
    "state": "Alberta",
    "lat": 49.1446990967,
    "lon": -112.0839996338
},
"CFQ4": {
    "iata": "",
    "name": "Cheadle Airport",
    "city": "Cheadle",
    "state": "Alberta",
    "lat": 51.0574989319,
    "lon": -113.6240005493
},
"CFQ5": {
    "iata": "",
    "name": "Silver City Airport",
    "city": "Silver City",
    "state": "Yukon",
    "lat": 61.0289001465,
    "lon": -138.4080047607
},
"CFQ6": {
    "iata": "",
    "name": "Pelly Crossing Airport",
    "city": "Pelly Crossing",
    "state": "Yukon",
    "lat": 62.8372001648,
    "lon": -136.5350036621
},
"CFQ7": {
    "iata": "",
    "name": "Edmonton / Gartner Airport",
    "city": "Edmonton",
    "state": "Alberta",
    "lat": 53.2817001343,
    "lon": -113.455001831
},
"CFR2": {
    "iata": "",
    "name": "Bawlf (Blackwells) Airport",
    "city": "Bawlf",
    "state": "Alberta",
    "lat": 52.9000015259,
    "lon": -112.5500030518
},
"CFR5": {
    "iata": "",
    "name": "Alban Airport",
    "city": "French River",
    "state": "Ontario",
    "lat": 46.0896987915,
    "lon": -80.6044006348
},
"CFR7": {
    "iata": "",
    "name": "Red Deer Forestry Airport",
    "city": "Red Deer Forestry",
    "state": "Alberta",
    "lat": 51.6514015198,
    "lon": -115.2389984131
},
"CFS4": {
    "iata": "",
    "name": "Ogilvie River Airport",
    "city": "Ogilvie River",
    "state": "Yukon",
    "lat": 65.6667022705,
    "lon": -138.1170043945
},
"CFS5": {
    "iata": "",
    "name": "Spirit River Airport",
    "city": "Spirit River",
    "state": "Alberta",
    "lat": 55.7835998535,
    "lon": -118.8399963379
},
"CFS6": {
    "iata": "",
    "name": "Loon River Airport",
    "city": "Loon River",
    "state": "Alberta",
    "lat": 57.1418991089,
    "lon": -115.0749969482
},
"CFS7": {
    "iata": "",
    "name": "Twin Creeks Airport",
    "city": "Twin Creeks",
    "state": "Yukon",
    "lat": 62.6194000244,
    "lon": -131.279006958
},
"CFS8": {
    "iata": "",
    "name": "Clearwater River Airport",
    "city": "Clearwater River",
    "state": "Alberta",
    "lat": 51.9880981445,
    "lon": -115.2279968262
},
"CFT2": {
    "iata": "",
    "name": "Wilderman Farm Airport",
    "city": "Blackie",
    "state": "Alberta",
    "lat": 50.552434748,
    "lon": -113.583183289
},
"CFT3": {
    "iata": "",
    "name": "Finlayson Lake Airport",
    "city": "Finlayson Lake",
    "state": "Yukon",
    "lat": 61.6913986206,
    "lon": -130.774002075
},
"CFT5": {
    "iata": "",
    "name": "Hyland Airport",
    "city": "Hyland",
    "state": "Yukon",
    "lat": 61.5238990784,
    "lon": -128.2689971924
},
"CFT8": {
    "iata": "",
    "name": "Pelican Airport",
    "city": "Pelican",
    "state": "Alberta",
    "lat": 56.1608009338,
    "lon": -113.4739990234
},
"CFT9": {
    "iata": "",
    "name": "Zama Lake Airport",
    "city": "Zama Lake",
    "state": "Alberta",
    "lat": 59.0638999939,
    "lon": -118.8899993896
},
"CFU3": {
    "iata": "",
    "name": "Chipman Airport",
    "city": "Chipman",
    "state": "Alberta",
    "lat": 53.7167015076,
    "lon": -112.6330032349
},
"CFU4": {
    "iata": "",
    "name": "Garden River Airport",
    "city": "Garden River",
    "state": "Alberta",
    "lat": 58.7139015198,
    "lon": -113.8759994507
},
"CFU8": {
    "iata": "",
    "name": "Irma Airport",
    "city": "Irma",
    "state": "Alberta",
    "lat": 52.9122009277,
    "lon": -111.1740036011
},
"CFV2": {
    "iata": "",
    "name": "Beiseker Airport",
    "city": "Beiseker",
    "state": "Alberta",
    "lat": 51.3932991028,
    "lon": -113.4720001221
},
"CFV3": {
    "iata": "",
    "name": "Mobil Bistcho Airport",
    "city": "Mobil Bistcho",
    "state": "Alberta",
    "lat": 59.4747326918,
    "lon": -119.006137848
},
"CFV6": {
    "iata": "",
    "name": "Margaret Lake Airport",
    "city": "Margaret Lake",
    "state": "Alberta",
    "lat": 58.9458023034,
    "lon": -115.256538391
},
"CFW2": {
    "iata": "",
    "name": "Gordon Lake Airport",
    "city": "Gordon Lake",
    "state": "Alberta",
    "lat": 56.6166992188,
    "lon": -110.5
},
"CFW4": {
    "iata": "",
    "name": "Muskeg Tower Airport",
    "city": "Muskeg Tower",
    "state": "Alberta",
    "lat": 57.1375007629,
    "lon": -110.8929977417
},
"CFW5": {
    "iata": "",
    "name": "Taltson River Airport",
    "city": "Taltson River",
    "state": "Northwest Territories",
    "lat": 60.3833007813,
    "lon": -111.3499984741
},
"CFX2": {
    "iata": "",
    "name": "Calgary / Okotoks Air Park",
    "city": "Calgary",
    "state": "Alberta",
    "lat": 50.7352981567,
    "lon": -113.934997559
},
"CFX3": {
    "iata": "",
    "name": "Doig Airport",
    "city": "Doig",
    "state": "Alberta",
    "lat": 56.9500007629,
    "lon": -119.516998291
},
"CFX4": {
    "iata": "",
    "name": "Manning Airport",
    "city": "Manning",
    "state": "Alberta",
    "lat": 56.9508018494,
    "lon": -117.6439971924
},
"CFX6": {
    "iata": "",
    "name": "Vulcan Airport",
    "city": "Vulcan",
    "state": "Alberta",
    "lat": 50.4047012329,
    "lon": -113.2829971313
},
"CFX8": {
    "iata": "",
    "name": "Chestermere (Kirkby Field) Airport",
    "city": "Chestermere",
    "state": "Alberta",
    "lat": 51.0416984558,
    "lon": -113.7519989014
},
"CFY2": {
    "iata": "",
    "name": "Grist Lake Airport",
    "city": "Grist Lake",
    "state": "Alberta",
    "lat": 55.4000015259,
    "lon": -110.483001709
},
"CFY4": {
    "iata": "",
    "name": "Winters Aire Park Airport",
    "city": "Indus",
    "state": "Alberta",
    "lat": 50.9048190147,
    "lon": -113.796215057
},
"CFY5": {
    "iata": "",
    "name": "Pine Lake",
    "city": "Pine Lake",
    "state": "Yukon",
    "lat": 60.103099823,
    "lon": -130.9340057373
},
"CFY6": {
    "iata": "",
    "name": "Turner Valley Bar N Ranch Airport",
    "city": "Turner Valley Bar N Ranch",
    "state": "Alberta",
    "lat": 50.6543998718,
    "lon": -114.34400177
},
"CFZ3": {
    "iata": "",
    "name": "Schlenker Airport",
    "city": "Medicine Hat",
    "state": "Alberta",
    "lat": 49.9667015076,
    "lon": -110.7170028687
},
"CFZ5": {
    "iata": "",
    "name": "Sundre / Goodwins Farm Airport",
    "city": "Sundre",
    "state": "Alberta",
    "lat": 51.7398057147,
    "lon": -114.662600756
},
"CGB2": {
    "iata": "",
    "name": "Bishell's Airport",
    "city": "Carstairs",
    "state": "Alberta",
    "lat": 51.5828018188,
    "lon": -114.0520019531
},
"CGF2": {
    "iata": "",
    "name": "Edmonton / Goyer Field",
    "city": "",
    "state": "Alberta",
    "lat": 53.5762892197,
    "lon": -112.982025146
},
"CGK2": {
    "iata": "",
    "name": "Gahcho Kue",
    "city": "",
    "state": "Northwest Territories",
    "lat": 63.4330558777,
    "lon": -109.19972229
},
"CGL2": {
    "iata": "",
    "name": "Harrow Airport",
    "city": "Harrow",
    "state": "Ontario",
    "lat": 42.0593986511,
    "lon": -82.8407974243
},
"CGL4": {
    "iata": "",
    "name": "Eaglesham (South) Airport",
    "city": "Eaglesham",
    "state": "Alberta",
    "lat": 55.6711006165,
    "lon": -117.9359970093
},
"CGR3": {
    "iata": "",
    "name": "George Lake Aerodrome",
    "city": "",
    "state": "Nunavut",
    "lat": 65.928056,
    "lon": -102.462222
},
"CGS2": {
    "iata": "",
    "name": "Goose Lake Aerodrome",
    "city": "",
    "state": "Nunavut",
    "lat": 65.552778,
    "lon": -106.433611
},
"CGV2": {
    "iata": "",
    "name": "Grand Valley / Luther Field",
    "city": "",
    "state": "Ontario",
    "lat": 43.976388889,
    "lon": -80.38527778
},
"CGV5": {
    "iata": "",
    "name": "Grand Valley (Black Field)",
    "city": "",
    "state": "Ontario",
    "lat": 43.8600915245,
    "lon": -80.2886867523
},
"CGV6": {
    "iata": "",
    "name": "Grand Valley (Martin Field)",
    "city": "",
    "state": "Ontario",
    "lat": 43.8748961118,
    "lon": -80.2824425697
},
"CHC5": {
    "iata": "",
    "name": "Hayes Camp Aerodrome",
    "city": "",
    "state": "Nunavut",
    "lat": 66.655556,
    "lon": -91.545
},
"CHF2": {
    "iata": "",
    "name": "Ottawa / Manotick (Hope Field)",
    "city": "Manotick",
    "state": "Ontario",
    "lat": 45.1906013489,
    "lon": -75.7086029053
},
"CHG2": {
    "iata": "",
    "name": "Harbour Grace Airport",
    "city": "Harbour Grace",
    "state": "Newfoundland and Labrador",
    "lat": 47.6856002808,
    "lon": -53.2538986206
},
"CHM2": {
    "iata": "",
    "name": "Spiritwood / H & M Fast Farms",
    "city": "",
    "state": "Saskatchewan",
    "lat": 53.275,
    "lon": -107.57027778
},
"CHS3": {
    "iata": "",
    "name": "Highgate (South)",
    "city": "",
    "state": "Ontario",
    "lat": 42.4736111111,
    "lon": -81.8219444444
},
"CJA3": {
    "iata": "",
    "name": "Morden Airport",
    "city": "Morden",
    "state": "Manitoba",
    "lat": 49.2103004456,
    "lon": -98.0591964722
},
"CJA5": {
    "iata": "",
    "name": "Nestor Falls Airport",
    "city": "Nestor Falls",
    "state": "Ontario",
    "lat": 49.1403007507,
    "lon": -93.9169006348
},
"CJA7": {
    "iata": "",
    "name": "Arcola Airport",
    "city": "Arcola",
    "state": "Saskatchewan",
    "lat": 49.6333007813,
    "lon": -102.483001709
},
"CJB2": {
    "iata": "",
    "name": "Friendship Field",
    "city": "Carman",
    "state": "Manitoba",
    "lat": 49.4914016724,
    "lon": -98.0186004639
},
"CJB3": {
    "iata": "",
    "name": "Steinbach Airport",
    "city": "Steinbach",
    "state": "Manitoba",
    "lat": 49.5494003296,
    "lon": -96.679397583
},
"CJB5": {
    "iata": "",
    "name": "Moosomin Airport",
    "city": "Moosomin",
    "state": "Saskatchewan",
    "lat": 50.168598175,
    "lon": -101.6439971924
},
"CJB6": {
    "iata": "",
    "name": "Gods Lake Airport",
    "city": "Gods Lake",
    "state": "Manitoba",
    "lat": 54.7792015076,
    "lon": -93.7169036865
},
"CJB8": {
    "iata": "",
    "name": "Kyle Airport",
    "city": "Kyle",
    "state": "Saskatchewan",
    "lat": 50.8333015442,
    "lon": -108.0699996948
},
"CJC2": {
    "iata": "",
    "name": "Craik Airport",
    "city": "Craik",
    "state": "Saskatchewan",
    "lat": 51.056098938,
    "lon": -105.8379974365
},
"CJC3": {
    "iata": "",
    "name": "Davidson Municipal Airport",
    "city": "Davidson",
    "state": "Saskatchewan",
    "lat": 51.2477989197,
    "lon": -105.9759979248
},
"CJC4": {
    "iata": "",
    "name": "Central Butte Airport",
    "city": "Central Butte",
    "state": "Saskatchewan",
    "lat": 50.801399231,
    "lon": -106.4879989624
},
"CJC5": {
    "iata": "",
    "name": "Shaunavon Airport",
    "city": "Shaunavon",
    "state": "Saskatchewan",
    "lat": 49.6581001282,
    "lon": -108.40599823
},
"CJC6": {
    "iata": "",
    "name": "Hafford Airport",
    "city": "Hafford",
    "state": "Saskatchewan",
    "lat": 52.7322006226,
    "lon": -107.3740005493
},
"CJC8": {
    "iata": "",
    "name": "Laurie River Airport",
    "city": "Laurie River",
    "state": "Manitoba",
    "lat": 56.2486000061,
    "lon": -101.3040008545
},

"CJD2": {
    "iata": "",
    "name": "Cudworth Municipal Airport",
    "city": "Cudworth",
    "state": "Saskatchewan",
    "lat": 52.4832992554,
    "lon": -105.7170028687
},
"CJD3": {
    "iata": "",
    "name": "Birch Hills Airport",
    "city": "Birch Hills",
    "state": "Saskatchewan",
    "lat": 52.9907989502,
    "lon": -105.4449996948
},
"CJD5": {
    "iata": "",
    "name": "Leader Airport",
    "city": "Leader",
    "state": "Saskatchewan",
    "lat": 50.8772010803,
    "lon": -109.5009994507
},
"CJE2": {
    "iata": "",
    "name": "Dore Lake Airport",
    "city": "Dore Lake",
    "state": "Saskatchewan",
    "lat": 54.6166992188,
    "lon": -107.3830032349
},
"CJE3": {
    "iata": "",
    "name": "Weyburn Airport",
    "city": "Weyburn",
    "state": "Saskatchewan",
    "lat": 49.6974983215,
    "lon": -103.8010025024
},
"CJE4": {
    "iata": "",
    "name": "Snow Lake Airport",
    "city": "Snow Lake",
    "state": "Manitoba",
    "lat": 54.8972015381,
    "lon": -99.818901062
},
"CJE5": {
    "iata": "",
    "name": "Glaslyn Airport",
    "city": "Glaslyn",
    "state": "Saskatchewan",
    "lat": 53.3772010803,
    "lon": -108.3420028687
},
"CJE6": {
    "iata": "",
    "name": "Paradise Hill Airport",
    "city": "Paradise Hill",
    "state": "Saskatchewan",
    "lat": 53.5353012085,
    "lon": -109.4339981079
},
"CJE7": {
    "iata": "",
    "name": "Ashern Airport",
    "city": "Ashern",
    "state": "Manitoba",
    "lat": 51.1585998535,
    "lon": -98.3319015503
},
"CJF3": {
    "iata": "",
    "name": "Ile-a-la-Crosse Airport",
    "city": "Ile-a-la-Crosse",
    "state": "Saskatchewan",
    "lat": 55.4897003174,
    "lon": -107.9300003052
},
"CJF5": {
    "iata": "",
    "name": "West Poplar Airport",
    "city": "West Poplar",
    "state": "Montana",
    "lat": 49.0031013489,
    "lon": -106.3870010376
},
"CJF8": {
    "iata": "",
    "name": "Biggar Airport",
    "city": "Biggar",
    "state": "Saskatchewan",
    "lat": 52.0511016846,
    "lon": -107.9879989624
},
"CJG2": {
    "iata": "",
    "name": "Eatonia (Elvie Smith) Municipal Airport",
    "city": "Eatonia",
    "state": "Saskatchewan",
    "lat": 51.2188987732,
    "lon": -109.3929977417
},
"CJG4": {
    "iata": "",
    "name": "Wrong Lake Airport",
    "city": "",
    "state": "Manitoba",
    "lat": 52.6154522074,
    "lon": -96.184015274
},
"CJH2": {
    "iata": "",
    "name": "Gilbert Plains Airport",
    "city": "Gilbert Plains",
    "state": "Manitoba",
    "lat": 51.1333007813,
    "lon": -100.5
},
"CJH3": {
    "iata": "",
    "name": "Maidstone Airport",
    "city": "Maidstone",
    "state": "Saskatchewan",
    "lat": 53.0943984985,
    "lon": -109.3249969482
},
"CJH4": {
    "iata": "",
    "name": "Ferland Airport",
    "city": "Ferland",
    "state": "Saskatchewan",
    "lat": 49.4449996948,
    "lon": -106.9319992065
},
"CJH8": {
    "iata": "",
    "name": "Leask Airport",
    "city": "Leask",
    "state": "Saskatchewan",
    "lat": 53.0167007446,
    "lon": -106.75
},
"CJJ2": {
    "iata": "",
    "name": "Glenboro Airport",
    "city": "Glenboro",
    "state": "Manitoba",
    "lat": 49.5499992371,
    "lon": -99.3332977295
},
"CJJ3": {
    "iata": "",
    "name": "Wildwood / Loche Mist Farms Airstrip",
    "city": "",
    "state": "Alberta",
    "lat": 53.546529605,
    "lon": -115.260658264
},
"CJJ4": {
    "iata": "",
    "name": "Deloraine Airport",
    "city": "Deloraine",
    "state": "Manitoba",
    "lat": 49.1506004333,
    "lon": -100.5009994507
},
"CJJ5": {
    "iata": "",
    "name": "Cabri Airport",
    "city": "Cabri",
    "state": "Saskatchewan",
    "lat": 50.6194000244,
    "lon": -108.466003418
},
"CJJ8": {
    "iata": "",
    "name": "Macklin Airport",
    "city": "Macklin",
    "state": "Saskatchewan",
    "lat": 52.3428001404,
    "lon": -109.9189987183
},
"CJK2": {
    "iata": "",
    "name": "Gunisao Lake Airport",
    "city": "Gunisao Lake",
    "state": "Manitoba",
    "lat": 53.5200004578,
    "lon": -96.3711013794
},
"CJK3": {
    "iata": "",
    "name": "Beauval Airport",
    "city": "Beauval",
    "state": "Saskatchewan",
    "lat": 55.1102981567,
    "lon": -107.716003418
},
"CJK4": {
    "iata": "",
    "name": "Esterhazy Airport",
    "city": "Esterhazy",
    "state": "Saskatchewan",
    "lat": 50.6427993774,
    "lon": -102.0999984741
},
"CJK5": {
    "iata": "",
    "name": "Gull Lake Airport",
    "city": "Gull Lake",
    "state": "Saskatchewan",
    "lat": 50.057800293,
    "lon": -108.4899978638
},
"CJK9": {
    "iata": "",
    "name": "Preeceville Airport",
    "city": "Preeceville",
    "state": "Saskatchewan",
    "lat": 51.9500007629,
    "lon": -102.6500015259
},
"CJL2": {
    "iata": "",
    "name": "Hatchet Lake Airport",
    "city": "Hatchet Lake",
    "state": "Saskatchewan",
    "lat": 58.6624984741,
    "lon": -103.5380020142
},
"CJL4": {
    "iata": "",
    "name": "La Loche Airport",
    "city": "La Loche",
    "state": "Saskatchewan",
    "lat": 56.4733009338,
    "lon": -109.4039993286
},
"CJL5": {
    "iata": "",
    "name": "Winnipeg / Lyncrest Airport",
    "city": "Winnipeg",
    "state": "Manitoba",
    "lat": 49.8525009155,
    "lon": -96.9736022949
},
"CJL6": {
    "iata": "",
    "name": "Altona Municipal Airport",
    "city": "Altona",
    "state": "Manitoba",
    "lat": 49.0943984985,
    "lon": -97.5338973999
},
"CJL8": {
    "iata": "",
    "name": "Kasba Lake Airport",
    "city": "Kasba Lake",
    "state": "Northwest Territories",
    "lat": 60.2919006348,
    "lon": -102.5019989014
},
"CJL9": {
    "iata": "",
    "name": "Radisson Airport",
    "city": "Radisson",
    "state": "Saskatchewan",
    "lat": 52.4631004333,
    "lon": -107.3769989014
},
"CJM2": {
    "iata": "",
    "name": "Ituna Airport",
    "city": "Ituna",
    "state": "Saskatchewan",
    "lat": 51.1460990906,
    "lon": -103.4260025024
},
"CJM4": {
    "iata": "",
    "name": "Gravelbourg Airport",
    "city": "Gravelbourg",
    "state": "Saskatchewan",
    "lat": 49.8662071228,
    "lon": -106.5710754395
},
"CJM5": {
    "iata": "",
    "name": "Frontier Airport",
    "city": "Frontier",
    "state": "Saskatchewan",
    "lat": 49.1666984558,
    "lon": -108.5670013428
},
"CJM6": {
    "iata": "",
    "name": "Arborfield Airport",
    "city": "Arborfield",
    "state": "Saskatchewan",
    "lat": 53.10779953,
    "lon": -103.6510009766
},
"CJN2": {
    "iata": "",
    "name": "Kamsack Airport",
    "city": "Kamsack",
    "state": "Saskatchewan",
    "lat": 51.5597000122,
    "lon": -101.8789978027
},
"CJN4": {
    "iata": "",
    "name": "Assiniboia Airport",
    "city": "Assiniboia",
    "state": "Saskatchewan",
    "lat": 49.7346992493,
    "lon": -105.9469985962
},
"CJN5": {
    "iata": "",
    "name": "Corman Air Park",
    "city": "Saskatoon",
    "state": "Saskatchewan",
    "lat": 52.0005989075,
    "lon": -106.4629974365
},
"CJN7": {
    "iata": "",
    "name": "Little Churchill River / Dunlop's Fly-In Lodge Airport",
    "city": "Little Churchill River",
    "state": "Manitoba",
    "lat": 56.5800018311,
    "lon": -96.2474975586
},
"CJP2": {
    "iata": "",
    "name": "Kerrobert Airport",
    "city": "Kerrobert",
    "state": "Saskatchewan",
    "lat": 51.9268989563,
    "lon": -109.1289978027
},
"CJP6": {
    "iata": "",
    "name": "Camsell Portage Airport",
    "city": "Camsell Portage",
    "state": "Saskatchewan",
    "lat": 59.6100006104,
    "lon": -109.266998291
},
"CJP7": {
    "iata": "",
    "name": "Bird River (Lac Du Bonnet) Airport",
    "city": "Bird River",
    "state": "Manitoba",
    "lat": 50.3967018127,
    "lon": -95.7350006104
},
"CJP9": {
    "iata": "",
    "name": "Charlot River Airport",
    "city": "Charlot River",
    "state": "Saskatchewan",
    "lat": 59.6016998291,
    "lon": -109.1370010376
},
"CJQ2": {
    "iata": "",
    "name": "Lampman Airport",
    "city": "Lampman",
    "state": "Saskatchewan",
    "lat": 49.3666992188,
    "lon": -102.766998291
},
"CJQ3": {
    "iata": "",
    "name": "Carlyle Airport",
    "city": "Carlyle",
    "state": "Saskatchewan",
    "lat": 49.6444015503,
    "lon": -102.2870025635
},
"CJQ4": {
    "iata": "",
    "name": "Maple Creek Airport",
    "city": "Maple Creek",
    "state": "Saskatchewan",
    "lat": 49.8958015442,
    "lon": -109.4749984741
},
"CJQ5": {
    "iata": "",
    "name": "Arnes Airport",
    "city": "Arnes",
    "state": "Manitoba",
    "lat": 50.836101532,
    "lon": -96.9571990967
},
"CJQ6": {
    "iata": "",
    "name": "Tanquary Fiord Airport",
    "city": "Tanquary Fiord",
    "state": "Nunavut",
    "lat": 81.4094009399,
    "lon": -76.8816986084
},
"CJQ9": {
    "iata": "",
    "name": "Big Sand Lake Airport",
    "city": "Big Sand Lake",
    "state": "Manitoba",
    "lat": 57.6194000244,
    "lon": -99.8752975464
},
"CJR2": {
    "iata": "",
    "name": "Luseland Airport",
    "city": "Luseland",
    "state": "Saskatchewan",
    "lat": 52.0699996948,
    "lon": -109.3740005493
},
"CJR3": {
    "iata": "",
    "name": "The Pas / Grace Lake Airport",
    "city": "The Pas",
    "state": "Manitoba",
    "lat": 53.8264007568,
    "lon": -101.205001831
},
"CJR4": {
    "iata": "",
    "name": "Eston Airport",
    "city": "Eston",
    "state": "Saskatchewan",
    "lat": 51.1441993713,
    "lon": -108.7630004883
},
"CJR5": {
    "iata": "",
    "name": "Gladstone Airport",
    "city": "Gladstone",
    "state": "Manitoba",
    "lat": 50.1636009216,
    "lon": -98.9424972534
},
"CJR7": {
    "iata": "",
    "name": "Canora Airport",
    "city": "Canora",
    "state": "Saskatchewan",
    "lat": 51.6288986206,
    "lon": -102.4499969482
},
"CJR8": {
    "iata": "",
    "name": "Mccreary Airport",
    "city": "Mccreary",
    "state": "Manitoba",
    "lat": 50.7647018433,
    "lon": -99.4966964722
},
"CJR9": {
    "iata": "",
    "name": "Naicam Airport",
    "city": "Naicam",
    "state": "Saskatchewan",
    "lat": 52.4113998413,
    "lon": -104.4840011597
},
"CJS2": {
    "iata": "",
    "name": "Malcolm Island Airport",
    "city": "Malcolm Island",
    "state": "Saskatchewan",
    "lat": 56.9494018555,
    "lon": -102.2389984131
},
"CJS3": {
    "iata": "",
    "name": "Cluff Lake Airport",
    "city": "Cluff Lake",
    "state": "Saskatchewan",
    "lat": 58.3911018372,
    "lon": -109.5159988403
},
"CJS4": {
    "iata": "",
    "name": "Moose Jaw Municipal Airport",
    "city": "Moose Jaw",
    "state": "Saskatchewan",
    "lat": 50.4342002869,
    "lon": -105.3870010376
},
"CJS5": {
    "iata": "",
    "name": "Killarney Municipal Airport",
    "city": "Killarney",
    "state": "Manitoba",
    "lat": 49.1516990662,
    "lon": -99.6902999878
},
"CJS7": {
    "iata": "",
    "name": "Carman (South) Airport",
    "city": "Carman",
    "state": "Manitoba",
    "lat": 49.4803009033,
    "lon": -98.0149993896
},
"CJT2": {
    "iata": "",
    "name": "Matheson Island Airport",
    "city": "Matheson Island",
    "state": "Manitoba",
    "lat": 51.7322006226,
    "lon": -96.9344024658
},
"CJT3": {
    "iata": "",
    "name": "Knee Lake Airport",
    "city": "Knee Lake",
    "state": "Manitoba",
    "lat": 54.9152984619,
    "lon": -94.7981033325
},
"CJT4": {
    "iata": "",
    "name": "Cumberland House Airport",
    "city": "Cumberland House",
    "state": "Saskatchewan",
    "lat": 53.9561004639,
    "lon": -102.297996521
},
"CJT5": {
    "iata": "",
    "name": "Melita Airport",
    "city": "Melita",
    "state": "Manitoba",
    "lat": 49.2616996765,
    "lon": -101.013999939
},
"CJT8": {
    "iata": "",
    "name": "Homewood Airport",
    "city": "Homewood",
    "state": "Manitoba",
    "lat": 49.5092010498,
    "lon": -97.8506011963
},
"CJT9": {
    "iata": "",
    "name": "Leoville Airport",
    "city": "Leoville",
    "state": "Saskatchewan",
    "lat": 53.6206016541,
    "lon": -107.6090011597
},
"CJU3": {
    "iata": "",
    "name": "Macdonald Airport",
    "city": "Macdonald",
    "state": "Manitoba",
    "lat": 50.0964012146,
    "lon": -98.5008010864
},
"CJU4": {
    "iata": "",
    "name": "Humboldt Airport",
    "city": "Humboldt",
    "state": "Saskatchewan",
    "lat": 52.1761016846,
    "lon": -105.1269989014
},
"CJU5": {
    "iata": "",
    "name": "Minnedosa Airport",
    "city": "Minnedosa",
    "state": "Manitoba",
    "lat": 50.271900177,
    "lon": -99.7630996704
},
"CJU6": {
    "iata": "",
    "name": "Arborg Airport",
    "city": "Arborg",
    "state": "Manitoba",
    "lat": 50.9127998352,
    "lon": -97.304397583
},
"CJU7": {
    "iata": "",
    "name": "Edam Airport",
    "city": "Edam",
    "state": "Saskatchewan",
    "lat": 53.1850013733,
    "lon": -108.7890014648
},
"CJV2": {
    "iata": "",
    "name": "Neilburg Airport",
    "city": "Neilburg",
    "state": "Saskatchewan",
    "lat": 52.831401825,
    "lon": -109.6399993896
},
"CJV4": {
    "iata": "",
    "name": "Otter Lake Airport",
    "city": "Otter Lake",
    "state": "Saskatchewan",
    "lat": 55.5811004639,
    "lon": -104.7850036621
},
"CJV5": {
    "iata": "",
    "name": "Neepawa Airport",
    "city": "Neepawa",
    "state": "Manitoba",
    "lat": 50.23279953,
    "lon": -99.510597229
},
"CJV7": {
    "iata": "SUR",
    "name": "Summer Beaver Airport",
    "city": "Summer Beaver",
    "state": "Ontario",
    "lat": 52.7085990906,
    "lon": -88.5419006348
},
"CJV8": {
    "iata": "",
    "name": "Grand Rapids Airport",
    "city": "Grand Rapids",
    "state": "Manitoba",
    "lat": 53.1725006104,
    "lon": -99.323097229
},
"CJV9": {
    "iata": "",
    "name": "Melville Municipal Airport",
    "city": "Melville",
    "state": "Saskatchewan",
    "lat": 50.9413986206,
    "lon": -102.7379989624
},
"CJW2": {
    "iata": "",
    "name": "Oxbow Airport",
    "city": "Oxbow",
    "state": "Saskatchewan",
    "lat": 49.2332992554,
    "lon": -102.1500015259
},
"CJW3": {
    "iata": "",
    "name": "Loon Lake Airport",
    "city": "Loon Lake",
    "state": "Saskatchewan",
    "lat": 54.0182991028,
    "lon": -109.1350021362
},
"CJW4": {
    "iata": "",
    "name": "Pelican Narrows Airport",
    "city": "Pelican Narrows",
    "state": "Saskatchewan",
    "lat": 55.2868995667,
    "lon": -102.75
},
"CJW5": {
    "iata": "",
    "name": "Russell Airport",
    "city": "Russell",
    "state": "Manitoba",
    "lat": 50.7658004761,
    "lon": -101.2949981689
},
"CJW7": {
    "iata": "",
    "name": "Cigar Lake Airport",
    "city": "Cigar Lake",
    "state": "Saskatchewan",
    "lat": 58.0531005859,
    "lon": -104.4840011597
},
"CJX4": {
    "iata": "",
    "name": "Rosetown Airport",
    "city": "Rosetown",
    "state": "Saskatchewan",
    "lat": 51.5643997192,
    "lon": -107.9179992676
},
"CJX5": {
    "iata": "",
    "name": "Souris Glenwood Industrial Air Park",
    "city": "Souris Glenwood",
    "state": "Manitoba",
    "lat": 49.6333007813,
    "lon": -100.1999969482
},
"CJY3": {
    "iata": "",
    "name": "Tisdale Airport",
    "city": "Tisdale",
    "state": "Saskatchewan",
    "lat": 52.8367004395,
    "lon": -104.0670013428
},
"CJY4": {
    "iata": "",
    "name": "Sandy Bay Airport",
    "city": "Sandy Bay",
    "state": "Saskatchewan",
    "lat": 55.5456008911,
    "lon": -102.2720031738
},
"CJY5": {
    "iata": "",
    "name": "Strathclair Airport",
    "city": "Strathclair",
    "state": "Manitoba",
    "lat": 50.3960990906,
    "lon": -100.4250030518
},
"CJZ2": {
    "iata": "",
    "name": "Portage La Prairie (North) Airport",
    "city": "Portage La Prairie",
    "state": "Manitoba",
    "lat": 49.9925003052,
    "lon": -98.3031005859
},
"CJZ3": {
    "iata": "",
    "name": "Melfort Airport",
    "city": "Melfort",
    "state": "Saskatchewan",
    "lat": 52.8666992188,
    "lon": -104.6999969482
},
"CJZ4": {
    "iata": "",
    "name": "Shellbrook Airport",
    "city": "Shellbrook",
    "state": "Saskatchewan",
    "lat": 53.2282981873,
    "lon": -106.3629989624
},
"CKA4": {
    "iata": "",
    "name": "Zhoda Airport",
    "city": "Zhoda",
    "state": "Manitoba",
    "lat": 49.2807998657,
    "lon": -96.5010986328
},
"CKA8": {
    "iata": "",
    "name": "St. Francois Xavier Airport",
    "city": "St. Francois Xavier",
    "state": "Manitoba",
    "lat": 49.9244003296,
    "lon": -97.5488967896
},
"CKA9": {
    "iata": "",
    "name": "Southend Airport",
    "city": "Southend",
    "state": "Saskatchewan",
    "lat": 56.3372001648,
    "lon": -103.2929992676
},
"CKB2": {
    "iata": "",
    "name": "Patuanak Airport",
    "city": "Patuanak",
    "state": "Saskatchewan",
    "lat": 55.9000015259,
    "lon": -107.7210006714
},
"CKB6": {
    "iata": "YAX",
    "name": "Wapekeka Airport",
    "city": "Angling Lake",
    "state": "Ontario",
    "lat": 53.8492012024,
    "lon": -89.5793991089
},
"CKB7": {
    "iata": "",
    "name": "Roblin Airport",
    "city": "Roblin",
    "state": "Manitoba",
    "lat": 51.2344017029,
    "lon": -101.3929977417
},
"CKB8": {
    "iata": "",
    "name": "Silver Falls Airport",
    "city": "Silver Falls",
    "state": "Manitoba",
    "lat": 50.5,
    "lon": -96.0980987549
},
"CKC6": {
    "iata": "",
    "name": "Lanigan Airport",
    "city": "Lanigan",
    "state": "Saskatchewan",
    "lat": 51.8452987671,
    "lon": -104.9919967651
},
"CKC7": {
    "iata": "",
    "name": "Rockglen Airport",
    "city": "Rockglen",
    "state": "Saskatchewan",
    "lat": 49.1666984558,
    "lon": -105.9329986572
},
"CKC8": {
    "iata": "",
    "name": "Somerset Airport",
    "city": "Somerset",
    "state": "Manitoba",
    "lat": 49.4002990723,
    "lon": -98.6924972534
},
"CKC9": {
    "iata": "",
    "name": "Pangman Airport",
    "city": "Pangman",
    "state": "Saskatchewan",
    "lat": 49.6464004517,
    "lon": -104.6660003662
},
"CKD2": {
    "iata": "",
    "name": "Porcupine Plain Airport",
    "city": "Porcupine Plain",
    "state": "Saskatchewan",
    "lat": 52.6197013855,
    "lon": -103.2480010986
},
"CKD5": {
    "iata": "",
    "name": "Kipling Airport",
    "city": "Kipling",
    "state": "Saskatchewan",
    "lat": 50.0992012024,
    "lon": -102.6070022583
},
"CKD7": {
    "iata": "",
    "name": "Roland (Graham Field) Airport",
    "city": "Roland",
    "state": "Manitoba",
    "lat": 49.4082984924,
    "lon": -97.9906005859
},
"CKD8": {
    "iata": "",
    "name": "Kirkfield / Balsam Lake Airfield",
    "city": "",
    "state": "Ontario",
    "lat": 44.5399876549,
    "lon": -78.8892602921
},
"CKD9": {
    "iata": "",
    "name": "Slate Falls Airport",
    "city": "Slate Falls",
    "state": "Ontario",
    "lat": 51.1300010681,
    "lon": -91.6656036377
},
"CKE2": {
    "iata": "",
    "name": "Quill Lake Airport",
    "city": "Quill Lake",
    "state": "Saskatchewan",
    "lat": 52.0666999817,
    "lon": -104.266998291
},
"CKE8": {
    "iata": "",
    "name": "Unity Airport",
    "city": "Unity",
    "state": "Saskatchewan",
    "lat": 52.4458007813,
    "lon": -109.1849975586
},
"CKF2": {
    "iata": "",
    "name": "Radville Airport",
    "city": "Radville",
    "state": "Saskatchewan",
    "lat": 49.4606018066,
    "lon": -104.2720031738
},
"CKF4": {
    "iata": "",
    "name": "Goodsoil Airport",
    "city": "Goodsoil",
    "state": "Saskatchewan",
    "lat": 54.4166984558,
    "lon": -109.233001709
},
"CKF6": {
    "iata": "",
    "name": "Macgregor Airport",
    "city": "Macgregor",
    "state": "Manitoba",
    "lat": 49.9667015076,
    "lon": -98.75
},
"CKF9": {
    "iata": "",
    "name": "De Lesseps Lake Airport",
    "city": "De Lesseps Lake",
    "state": "Ontario",
    "lat": 50.7174987793,
    "lon": -90.6836013794
},
"CKG2": {
    "iata": "",
    "name": "Riverton Airport",
    "city": "Riverton",
    "state": "Manitoba",
    "lat": 50.971698761,
    "lon": -97.011100769
},
"CKG5": {
    "iata": "",
    "name": "Manitou Airport",
    "city": "Manitou",
    "state": "Manitoba",
    "lat": 49.25,
    "lon": -98.5333023071
},
"CKG8": {
    "iata": "",
    "name": "Kakabeka Falls Airport",
    "city": "Kakabeka Falls",
    "state": "Ontario",
    "lat": 48.4183006287,
    "lon": -89.6018981934
},
"CKH2": {
    "iata": "",
    "name": "Rocanville Airport",
    "city": "Rocanville",
    "state": "Saskatchewan",
    "lat": 50.4646987915,
    "lon": -101.5540008545
},
"CKH3": {
    "iata": "",
    "name": "Debden Airport",
    "city": "Debden",
    "state": "Saskatchewan",
    "lat": 53.5318984985,
    "lon": -106.8840026855
},
"CKH7": {
    "iata": "",
    "name": "Spiritwood Airport",
    "city": "Spiritwood",
    "state": "Saskatchewan",
    "lat": 53.3633003235,
    "lon": -107.547996521
},
"CKH8": {
    "iata": "",
    "name": "Lumsden (Colhoun) Airport",
    "city": "Lumsden",
    "state": "Saskatchewan",
    "lat": 50.6674995422,
    "lon": -104.7890014648
},
"CKJ2": {
    "iata": "",
    "name": "Rosenort Airport",
    "city": "Rosenort",
    "state": "Manitoba",
    "lat": 49.4530982971,
    "lon": -97.4225006104
},
"CKJ4": {
    "iata": "",
    "name": "Hanley Airport",
    "city": "Hanley",
    "state": "Saskatchewan",
    "lat": 51.6241989136,
    "lon": -106.4420013428
},
"CKJ7": {
    "iata": "",
    "name": "Starbuck Airport",
    "city": "Starbuck",
    "state": "Manitoba",
    "lat": 49.7167015076,
    "lon": -97.6832962036
},
"CKJ8": {
    "iata": "",
    "name": "Molson Lake Airport",
    "city": "Molson Lake",
    "state": "Manitoba",
    "lat": 54.2580986023,
    "lon": -97.011100769
},
"CKJ9": {
    "iata": "",
    "name": "Lemberg Airport",
    "city": "Lemberg",
    "state": "Saskatchewan",
    "lat": 50.7089004517,
    "lon": -103.1969985962
},
"CKK2": {
    "iata": "",
    "name": "St. Brieux Airport",
    "city": "St. Brieux",
    "state": "Saskatchewan",
    "lat": 52.6500015259,
    "lon": -104.8669967651
},
"CKK3": {
    "iata": "",
    "name": "Scobey Border Station Airport",
    "city": "Coronach",
    "state": "Montana",
    "lat": 48.9994659424,
    "lon": -105.3993377686
},
"CKK4": {
    "iata": "",
    "name": "Estevan (South) Airport",
    "city": "Estevan",
    "state": "Saskatchewan",
    "lat": 49.038898468,
    "lon": -102.9759979248
},
"CKK5": {
    "iata": "",
    "name": "Eastend Airport",
    "city": "Eastend",
    "state": "Saskatchewan",
    "lat": 49.5499992371,
    "lon": -108.8000030518
},
"CKK7": {
    "iata": "",
    "name": "Steinbach (South) Airport",
    "city": "Steinbach",
    "state": "Manitoba",
    "lat": 49.4939002991,
    "lon": -96.6988983154
},
"CKL2": {
    "iata": "",
    "name": "Selkirk Airport",
    "city": "Selkirk",
    "state": "Manitoba",
    "lat": 50.1721992493,
    "lon": -96.8722000122
},
"CKL3": {
    "iata": "WNN",
    "name": "Wunnumin Lake Airport",
    "city": "Wunnumin Lake",
    "state": "Ontario",
    "lat": 52.893901825,
    "lon": -89.2891998291
},
"CKL5": {
    "iata": "",
    "name": "Shoal Lake Airport",
    "city": "Shoal Lake",
    "state": "Manitoba",
    "lat": 50.4575004578,
    "lon": -100.6090011597
},
"CKL6": {
    "iata": "",
    "name": "Little Bear Lake Airport",
    "city": "Little Bear Lake",
    "state": "Saskatchewan",
    "lat": 54.2919006348,
    "lon": -104.6709976196
},
"CKL9": {
    "iata": "",
    "name": "Regina Beach Airport",
    "city": "Regina Beach",
    "state": "Saskatchewan",
    "lat": 50.7527999878,
    "lon": -104.9789962769
},
"CKM2": {
    "iata": "",
    "name": "Sioux Narrows Airport",
    "city": "Sioux Narrows",
    "state": "Ontario",
    "lat": 49.3899993896,
    "lon": -93.995300293
},
"CKM4": {
    "iata": "",
    "name": "Jan Lake Airport",
    "city": "Jan Lake",
    "state": "Saskatchewan",
    "lat": 54.8307991028,
    "lon": -102.7890014648
},
"CKM6": {
    "iata": "",
    "name": "Easterville Airport",
    "city": "Easterville",
    "state": "Manitoba",
    "lat": 53.1166992188,
    "lon": -99.8000030518
},
"CKM8": {
    "iata": "",
    "name": "Opapimiskan Lake Airport",
    "city": "Opapimiskan Lake",
    "state": "Ontario",
    "lat": 52.6067008972,
    "lon": -90.3768997192
},
"CKN5": {
    "iata": "",
    "name": "Fillmore Airport",
    "city": "Fillmore",
    "state": "Saskatchewan",
    "lat": 49.8689002991,
    "lon": -103.4449996948
},
"CKN8": {
    "iata": "",
    "name": "Nekweaga Bay Airport",
    "city": "Nekweaga Bay",
    "state": "Saskatchewan",
    "lat": 57.7425003052,
    "lon": -103.9449996948
},
"CKP2": {
    "iata": "",
    "name": "Spring Valley (North) Airport",
    "city": "Spring Valley",
    "state": "Saskatchewan",
    "lat": 50.0600013733,
    "lon": -105.4020004272
},
"CKQ2": {
    "iata": "",
    "name": "Squaw Rapids Airport",
    "city": "Squaw Rapids",
    "state": "Saskatchewan",
    "lat": 53.6786003113,
    "lon": -103.3499984741
},
"CKQ3": {
    "iata": "YNO",
    "name": "North Spirit Lake Airport",
    "city": "North Spirit Lake",
    "state": "Ontario",
    "lat": 52.4900016785,
    "lon": -92.9710998535
},
"CKQ5": {
    "iata": "",
    "name": "Lucky Lake Airport",
    "city": "Lucky Lake",
    "state": "Saskatchewan",
    "lat": 50.9942016602,
    "lon": -107.1309967041
},
"CKQ6": {
    "iata": "",
    "name": "Erickson Municipal Airport",
    "city": "Erickson",
    "state": "Manitoba",
    "lat": 50.4994010925,
    "lon": -99.8977966309
},
"CKQ7": {
    "iata": "",
    "name": "Vermilion Bay Airport",
    "city": "Vermilion Bay",
    "state": "Ontario",
    "lat": 49.879699707,
    "lon": -93.4364013672
},
"CKQ8": {
    "iata": "",
    "name": "McArthur River Airport",
    "city": "Mcarthur River",
    "state": "Saskatchewan",
    "lat": 57.7675018311,
    "lon": -105.0240020752
},
"CKQ9": {
    "iata": "",
    "name": "Pine Dock Airport",
    "city": "Pine Dock",
    "state": "Manitoba",
    "lat": 51.6199989319,
    "lon": -96.810798645
},
"CKR3": {
    "iata": "",
    "name": "Ste. Rose Du Lac Airport",
    "city": "Ste. Rose Du Lac",
    "state": "Manitoba",
    "lat": 51.0407981873,
    "lon": -99.495300293
},
"CKR4": {
    "iata": "",
    "name": "Lundar Airport",
    "city": "Lundar",
    "state": "Manitoba",
    "lat": 50.7033004761,
    "lon": -98.0567016602
},
"CKR7": {
    "iata": "",
    "name": "Virden (Gabrielle Farm) Airport",
    "city": "Virden",
    "state": "Manitoba",
    "lat": 49.7846984863,
    "lon": -100.9560012817
},
"CKR9": {
    "iata": "",
    "name": "Outlook Airport",
    "city": "Outlook",
    "state": "Saskatchewan",
    "lat": 51.4824981689,
    "lon": -107.0370025635
},
"CKS3": {
    "iata": "",
    "name": "Cudworth Airport",
    "city": "Cudworth",
    "state": "Saskatchewan",
    "lat": 52.4880981445,
    "lon": -105.763999939
},
"CKS6": {
    "iata": "",
    "name": "Bryant Airport",
    "city": "Estevan",
    "state": "Saskatchewan",
    "lat": 49.4099998474,
    "lon": -103.1439971924
},
"CKS7": {
    "iata": "",
    "name": "Wadena Airport",
    "city": "Wadena",
    "state": "Saskatchewan",
    "lat": 51.9294480759,
    "lon": -103.833761215
},
"CKS8": {
    "iata": "",
    "name": "Cree Lake (Crystal Lodge) Airport",
    "city": "Cree Lake",
    "state": "Saskatchewan",
    "lat": 57.4641990662,
    "lon": -106.7480010986
},
"CKS9": {
    "iata": "",
    "name": "Shepherd's Landing Airport",
    "city": "Kincardine",
    "state": "Ontario",
    "lat": 44.1175003052,
    "lon": -81.6983032227
},
"CKT5": {
    "iata": "",
    "name": "Hartney Airport",
    "city": "Hartney",
    "state": "Manitoba",
    "lat": 49.4500007629,
    "lon": -100.5500030518
},
"CKT7": {
    "iata": "",
    "name": "Wakaw Airport",
    "city": "Wakaw",
    "state": "Saskatchewan",
    "lat": 52.6490522523,
    "lon": -105.763063431
},
"CKU2": {
    "iata": "",
    "name": "Treherne Airport",
    "city": "Treherne",
    "state": "Manitoba",
    "lat": 49.6310997009,
    "lon": -98.6663970947
},
"CKU4": {
    "iata": "",
    "name": "Cut Knife Airport",
    "city": "Cut Knife",
    "state": "Saskatchewan",
    "lat": 52.7332992554,
    "lon": -109.016998291
},
"CKU5": {
    "iata": "",
    "name": "Imperial Airport",
    "city": "Imperial",
    "state": "Saskatchewan",
    "lat": 51.3499984741,
    "lon": -105.4000015259
},
"CKU6": {
    "iata": "",
    "name": "Grenfell Airport",
    "city": "Grenfell",
    "state": "Saskatchewan",
    "lat": 50.4192008972,
    "lon": -102.9349975586
},
"CKU7": {
    "iata": "",
    "name": "Watrous Airport",
    "city": "Watrous",
    "state": "Saskatchewan",
    "lat": 51.68713736,
    "lon": -105.362319946
},
"CKV2": {
    "iata": "",
    "name": "Kelvington Airport",
    "city": "Kelvington",
    "state": "Saskatchewan",
    "lat": 52.1333007813,
    "lon": -103.5350036621
},
"CKV4": {
    "iata": "",
    "name": "North of Sixty Airport",
    "city": "Obre Lake",
    "state": "Northwest Territories",
    "lat": 60.3163986206,
    "lon": -103.1289978027
},
"CKV6": {
    "iata": "",
    "name": "Churchbridge Airport",
    "city": "Churchbridge",
    "state": "Saskatchewan",
    "lat": 51.0167007446,
    "lon": -101.8170013428
},
"CKV7": {
    "iata": "",
    "name": "Wawota Airport",
    "city": "Wawota",
    "state": "Saskatchewan",
    "lat": 49.8944823433,
    "lon": -102.03045845
},
"CKW6": {
    "iata": "",
    "name": "Davin Lake Airport",
    "city": "Davin Lake",
    "state": "Saskatchewan",
    "lat": 56.8833007813,
    "lon": -103.5830001831
},
"CKX2": {
    "iata": "",
    "name": "Warren / Woodlands Airport",
    "city": "Warren",
    "state": "Manitoba",
    "lat": 50.1594009399,
    "lon": -97.5911026001
},
"CKX4": {
    "iata": "",
    "name": "Fisher Branch Airport",
    "city": "Fisher Branch",
    "state": "Manitoba",
    "lat": 51.0833015442,
    "lon": -97.4832992554
},
"CKX5": {
    "iata": "",
    "name": "Dinsmore Airport",
    "city": "Dinsmore",
    "state": "Saskatchewan",
    "lat": 51.3306007385,
    "lon": -107.43800354
},
"CKX8": {
    "iata": "",
    "name": "Big River Airport",
    "city": "Big River",
    "state": "Saskatchewan",
    "lat": 53.836101532,
    "lon": -107.0090026855
},
"CKY2": {
    "iata": "",
    "name": "Whitewood Airport",
    "city": "Whitewood",
    "state": "Saskatchewan",
    "lat": 50.3347783814,
    "lon": -102.274475098
},
"CKY8": {
    "iata": "",
    "name": "Arkayla Springs Airport",
    "city": "Cochrane",
    "state": "Alberta",
    "lat": 51.20470047,
    "lon": -114.7740020752
},
"CKZ2": {
    "iata": "",
    "name": "Willow Bunch Airport",
    "city": "Willow Bunch",
    "state": "Saskatchewan",
    "lat": 49.4000015259,
    "lon": -105.6669998169
},
"CKZ3": {
    "iata": "",
    "name": "Elk Island Airport",
    "city": "Elk Island",
    "state": "Manitoba",
    "lat": 54.6713981628,
    "lon": -94.1453018188
},
"CKZ6": {
    "iata": "",
    "name": "Louise Municipal Airport",
    "city": "Crystal City-Pilot Mound",
    "state": "Manitoba",
    "lat": 49.1472015381,
    "lon": -98.8807983398
},
"CKZ7": {
    "iata": "",
    "name": "Winkler Airport",
    "city": "Winkler",
    "state": "Manitoba",
    "lat": 49.1669006348,
    "lon": -97.9203033447
},
"CLA2": {
    "iata": "",
    "name": "L'Assomption Airport",
    "city": "L'Assomption",
    "state": "Quebec",
    "lat": 45.8231010437,
    "lon": -73.4606018066
},
"CLA4": {
    "iata": "",
    "name": "Holland Landing Airpark",
    "city": "Holland Landing",
    "state": "Ontario",
    "lat": 44.0894012451,
    "lon": -79.4950027466
},
"CLA5": {
    "iata": "",
    "name": "Lethbridge / Anderson Field",
    "city": "Lethbridge",
    "state": "Alberta",
    "lat": 49.6569444445,
    "lon": -112.772777778
},
"CLA6": {
    "iata": "",
    "name": "Lancaster Airpark",
    "city": "Bainsville",
    "state": "Ontario",
    "lat": 45.2004013062,
    "lon": -74.361000061
},
"CLB2": {
    "iata": "",
    "name": "Plattsville (Lubitz Flying Field)",
    "city": "",
    "state": "Ontario",
    "lat": 43.3058333,
    "lon": -80.5486111
},
"CLC2": {
    "iata": "",
    "name": "London / Chapeskie Field",
    "city": "London",
    "state": "Ontario",
    "lat": 43.0682983398,
    "lon": -81.1256027222
},
"CLE4": {
    "iata": "",
    "name": "Lower East Pubnico (La Field) Airport",
    "city": "Lower East Pubnico",
    "state": "Nova Scotia",
    "lat": 43.6222000122,
    "lon": -65.7619018555
},
"CLG3": {
    "iata": "",
    "name": "Liege / CNRL Airport",
    "city": "Liege",
    "state": "Alberta",
    "lat": 57.0018997192,
    "lon": -113.194000244
},
"CLG7": {
    "iata": "",
    "name": "Fort McMurray / Legend Airfield",
    "city": "",
    "state": "Alberta",
    "lat": 57.19694444,
    "lon": -112.895556
},
"CLJ3": {
    "iata": "",
    "name": "Lethbridge / J3 Airfield",
    "city": "",
    "state": "Alberta",
    "lat": 49.7416214711,
    "lon": -112.738330364
},
"CLK3": {
    "iata": "",
    "name": "Lucknow Airpark",
    "city": "Lucknow",
    "state": "Ontario",
    "lat": 43.9678001404,
    "lon": -81.4933013916
},
"CLM2": {
    "iata": "",
    "name": "Leamington Airport",
    "city": "Leamington",
    "state": "Ontario",
    "lat": 42.0250015259,
    "lon": -82.5250015259
},
"CLN4": {
    "iata": "",
    "name": "Beaverlodge / Clanachan Field",
    "city": "",
    "state": "Alberta",
    "lat": 55.2344927355,
    "lon": -119.841592312
},
"CLS3": {
    "iata": "",
    "name": "Fort McMurray / South Liege Airfield",
    "city": "",
    "state": "Alberta",
    "lat": 56.8323528324,
    "lon": -113.098840714
},
"CLV2": {
    "iata": "",
    "name": "Stayner (Clearview Field)",
    "city": "",
    "state": "Ontario",
    "lat": 44.404637674,
    "lon": -80.1479780674
},
"CLW2": {
    "iata": "",
    "name": "Lewvan (Farr Strip) Airport",
    "city": "Lewvan",
    "state": "Saskatchewan",
    "lat": 49.9850006104,
    "lon": -104.1149978638
},
"CLW3": {
    "iata": "",
    "name": "Laurel / Whittington",
    "city": "",
    "state": "Ontario",
    "lat": 43.9791679382,
    "lon": -80.1772232056
},
"CMA2": {
    "iata": "",
    "name": "Mattawa Airport",
    "city": "Mattawa",
    "state": "Ontario",
    "lat": 46.2997016907,
    "lon": -78.7478027344
},
"CMB2": {
    "iata": "",
    "name": "Meadowbank Airport",
    "city": "Meadowbank Gold Mine",
    "state": "Nunavut",
    "lat": 65.0246615457,
    "lon": -96.0686588287
},
"CMF2": {
    "iata": "",
    "name": "Edmonton / Calmar (Maplelane Farm)",
    "city": "",
    "state": "Alberta",
    "lat": 53.1846546068,
    "lon": -113.738236427
},
"CMF3": {
    "iata": "",
    "name": "Lethbridge (Mercer Field)",
    "city": "",
    "state": "Alberta",
    "lat": 49.5548112877,
    "lon": -112.561540604
},
"CML2": {
    "iata": "",
    "name": "Quamichan Lake (Raven Field) Airport",
    "city": "Quamichan Lake",
    "state": "British Columbia",
    "lat": 48.8119010925,
    "lon": -123.6510009766
},
"CMN4": {
    "iata": "",
    "name": "Minto",
    "city": "",
    "state": "Yukon",
    "lat": 62.6047222222,
    "lon": -137.221944444
},
"CMN5": {
    "iata": "",
    "name": "Manic-5",
    "city": "",
    "state": "Quebec",
    "lat": 50.6577319114,
    "lon": -68.8310194016
},
"CMN6": {
    "iata": "",
    "name": "Edmonton/Morinville (Mike's Field)",
    "city": "",
    "state": "Alberta",
    "lat": 53.8369444444,
    "lon": -113.563333333
},
"CMW3": {
    "iata": "",
    "name": "Matawatchan",
    "city": "",
    "state": "Ontario",
    "lat": 45.1643383253,
    "lon": -77.0955276489
},
"CNA2": {
    "iata": "",
    "name": "Highgate Airport",
    "city": "Highgate",
    "state": "Ontario",
    "lat": 42.5544013977,
    "lon": -81.8031005859
},
"CNA3": {
    "iata": "",
    "name": "Springwater Barrie Airpark",
    "city": "Springwater",
    "state": "Ontario",
    "lat": 44.4063987732,
    "lon": -79.7316970825
},
"CNA4": {
    "iata": "",
    "name": "Emsdale Airport",
    "city": "Emsdale",
    "state": "Ontario",
    "lat": 45.5499992371,
    "lon": -79.3499984741
},
"CNA9": {
    "iata": "",
    "name": "Tomvale Airport",
    "city": "Plevna",
    "state": "Ontario",
    "lat": 44.9160995483,
    "lon": -76.935798645
},
"CNC3": {
    "iata": "",
    "name": "Brampton Airport",
    "city": "Brampton",
    "state": "Ontario",
    "lat": 43.7602996826,
    "lon": -79.875
},
"CNC4": {
    "iata": "",
    "name": "Guelph Airport",
    "city": "Guelph",
    "state": "Ontario",
    "lat": 43.5638999939,
    "lon": -80.1960983276
},
"CND4": {
    "iata": "",
    "name": "Stanhope Municipal Airport",
    "city": "Haliburton",
    "state": "Ontario",
    "lat": 45.1108333333,
    "lon": -78.64
},
"CNE3": {
    "iata": "XBE",
    "name": "Bearskin Lake Airport",
    "city": "Bearskin Lake",
    "state": "Ontario",
    "lat": 53.9655990601,
    "lon": -91.0271987915
},
"CNE4": {
    "iata": "",
    "name": "Iroquois Falls Airport",
    "city": "Iroquois Falls",
    "state": "Ontario",
    "lat": 48.7416992188,
    "lon": -80.793296814
},
"CNE9": {
    "iata": "",
    "name": "Essex Airport",
    "city": "Essex",
    "state": "Ontario",
    "lat": 42.0957984924,
    "lon": -82.8794021606
},
"CNF3": {
    "iata": "",
    "name": "Pendleton Airport",
    "city": "Pendleton",
    "state": "Ontario",
    "lat": 45.4860992432,
    "lon": -75.0960998535
},
"CNF4": {
    "iata": "",
    "name": "Lindsay Airport",
    "city": "Lindsay",
    "state": "Ontario",
    "lat": 44.3647003174,
    "lon": -78.7838973999
},
"CNF8": {
    "iata": "",
    "name": "Dwight Airport",
    "city": "",
    "state": "Ontario",
    "lat": 45.3144454956,
    "lon": -78.9725036621
},
"CNF9": {
    "iata": "",
    "name": "Niagara South Airport",
    "city": "Niagara Falls",
    "state": "Ontario",
    "lat": 42.9994010925,
    "lon": -79.0635986328
},
"CNH2": {
    "iata": "",
    "name": "Natuashish Airport",
    "city": "Natuashish",
    "state": "Newfoundland and Labrador",
    "lat": 55.913898468,
    "lon": -61.1843986511
},
"CNJ3": {
    "iata": "",
    "name": "Fort Erie Airport",
    "city": "Fort Erie",
    "state": "Ontario",
    "lat": 42.9172121601,
    "lon": -78.957452774
},
"CNJ4": {
    "iata": "",
    "name": "Orillia Airport",
    "city": "Orillia",
    "state": "Ontario",
    "lat": 44.6776557839,
    "lon": -79.3102169037
},
"CNK4": {
    "iata": "",
    "name": "Parry Sound Area Municipal Airport",
    "city": "Parry Sound",
    "state": "Ontario",
    "lat": 45.2574996948,
    "lon": -79.8296966553
},
"CNL2": {
    "iata": "",
    "name": "Fort McMurray / North Liege Airfield",
    "city": "",
    "state": "Alberta",
    "lat": 57.1360995926,
    "lon": -113.290071487
},
"CNL3": {
    "iata": "",
    "name": "Brockville - Thousand Islands Regional Tackaberry Airport",
    "city": "Brockville",
    "state": "Ontario",
    "lat": 44.6394004822,
    "lon": -75.7502975464
},
"CNL4": {
    "iata": "",
    "name": "Port Elgin Airport",
    "city": "Port Elgin",
    "state": "Ontario",
    "lat": 44.4152984619,
    "lon": -81.4143981934
},
"CNL7": {
    "iata": "",
    "name": "Nobel / Lumsden Air Park",
    "city": "",
    "state": "Ontario",
    "lat": 45.4083333,
    "lon": -80.0780555
},
"CNL8": {
    "iata": "",
    "name": "Wyevale (Boker Field) Airport",
    "city": "Wyevale",
    "state": "Ontario",
    "lat": 44.6553001404,
    "lon": -79.8788986206
},
"CNL9": {
    "iata": "",
    "name": "Nueltin Lake Airport",
    "city": "Nueltin Lake",
    "state": "Manitoba",
    "lat": 59.7080993652,
    "lon": -100.1269989014
},
"CNM2": {
    "iata": "",
    "name": "Melbourne Airport",
    "city": "Melbourne",
    "state": "Ontario",
    "lat": 42.8241996765,
    "lon": -81.5485992432
},
"CNM5": {
    "iata": "KIF",
    "name": "Kingfisher Lake Airport",
    "city": "Kingfisher Lake",
    "state": "Ontario",
    "lat": 53.0125007629,
    "lon": -89.8553009033
},
"CNN3": {
    "iata": "",
    "name": "Shelburne / Fisher Field",
    "city": "Shelburne",
    "state": "Ontario",
    "lat": 44.0278929436,
    "lon": -80.2059459686
},
"CNN8": {
    "iata": "",
    "name": "Gananoque Airport",
    "city": "Gananoque",
    "state": "Ontario",
    "lat": 44.4019012451,
    "lon": -76.2442016602
},
"CNP3": {
    "iata": "",
    "name": "Arnprior Airport",
    "city": "Arnprior",
    "state": "Ontario",
    "lat": 45.4136009216,
    "lon": -76.3657989502
},
"CNP6": {
    "iata": "",
    "name": "Nampa / Hockey",
    "city": "",
    "state": "Alberta",
    "lat": 55.914900566,
    "lon": -117.136155367
},
"CNP7": {
    "iata": "",
    "name": "Iroquois Airport",
    "city": "Iroquois",
    "state": "Ontario",
    "lat": 44.8421783447,
    "lon": -75.3114089966
},
"CNP8": {
    "iata": "",
    "name": "Greenbank Airport",
    "city": "Greenbank",
    "state": "Ontario",
    "lat": 44.1336968141,
    "lon": -79.0130281448
},
"CNQ3": {
    "iata": "",
    "name": "Welland / Niagara Central Airport",
    "city": "Welland",
    "state": "Ontario",
    "lat": 42.9791984558,
    "lon": -79.3246994019
},
"CNR4": {
    "iata": "",
    "name": "Tobermory Airport",
    "city": "Tobermory",
    "state": "Ontario",
    "lat": 45.2214680842,
    "lon": -81.6275596619
},
"CNR6": {
    "iata": "",
    "name": "Carleton Place Airport",
    "city": "Carleton Place",
    "state": "Ontario",
    "lat": 45.1039009094,
    "lon": -76.123298645
},
"CNR9": {
    "iata": "",
    "name": "Arnstein Airport",
    "city": "Arnstein",
    "state": "Ontario",
    "lat": 45.9255981445,
    "lon": -79.9278030396
},