nearest_airport,location,latitude,longitude,full_address,distance_to_airport,nearest_airport_icao
YCH,Acadieville,46.7291233,-65.2658818,"Acadieville, Acadieville Parish, Kent County, New Brunswick / Nouveau-Brunswick, Canada",33.97719955444336,CYCH
YDO,Albanel,48.883683,-72.442474,"Albanel, Maria-Chapdelaine, Saguenay–Lac-Saint-Jean, Québec, G8M 3J0, Canada",12.695927619934082,CYDO
YGM,Arnes,50.802314,-96.9953026,"Rural Municipality of Gimli, Division No. 18, Manitoba, Canada",19.664094924926758,CYGM
CAR,Arthurette,46.7908583,-67.48857,"Arthurette, Gordon Parish, Victoria County, New Brunswick / Nouveau-Brunswick, E7H 4H7, Canada",35.02895736694336,CCH2
YKF,Atwood,43.6669112,-81.0202088,"Atwood, North Perth, Perth County, Ontario, N0G 1B0, Canada",56.548377990722656,CYKF
YBX,Barr'd Harbour,50.833333,-57.033333,"Barr’d Harbour, Newfoundland, Newfoundland and Labrador, Canada",68.68189239501953,CYBX
YKA,Barrière,51.1891346,-120.133452,"Barriere, British Columbia, V0E 1E0, Canada",58.35212707519531,CYKA
YYF,Beaverdell,49.4343519,-119.0884516,"Beaverdell, Area E (Beaverdell/West Boundary), Regional District of Kootenay Boundary, British Columbia, Canada",37.2620735168457,CAU3
YMJ,Belle Plaine,50.3942989,-105.1560989,"Belle Plaine, Division No. 6, Saskatchewan, S0G 0G0, Canada",29.45220947265625,CYQR
YEN,Bienfait,49.1430593,-102.8076095,"Bienfait, Division No. 1, Saskatchewan, S0C 0M0, Canada",13.728549003601074,CYEN
YRM,Bluffton,52.7497903,-114.2922547,"Bluffton, Division No. 8, Alberta, Canada",54.53958511352539,CYRM
YQY,Boisdale,46.0961172,-60.5082915,"Boisdale, Cape Breton Regional Municipality, Cape Breton County, Nova Scotia, Canada",36.221641540527344,CYQY
ZBM,Bonsecours,45.404959,-72.305489,"Bonsecours, Le Val-Saint-François, Estrie, Québec, J0E 1H0, Canada",36.35391616821289,CZBM
YYC,Bragg Creek,50.9514689,-114.562894,"Bragg Creek, Rocky View County, Alberta, Canada",42.04104995727539,CYYC
YQQ,Buckley Bay,49.5247834,-124.8493853,"Buckley Bay, Area A (Baynes Sound), Comox Valley Regional District, British Columbia, V0R 1W0, Canada",19.670455932617188,CYQQ
YGR,Cap-aux-Meules,47.377501,-61.8661738,"Cap-aux-Meules, Les Îles-de-la-Madeleine, Communauté maritime des Îles-de-la-Madeleine, Gaspésie–Îles-de-la-Madeleine, Québec, G4T 1C9, Canada",8.455056190490723,CYGR
YMH,Cape Charles,52.2175485,-55.6384975,"Cape Charles, Labrador, Newfoundland and Labrador, Canada",17.076839447021484,CYMH
YPG,Carman,49.5082995,-98.0016853,"Carman, Division No. 3, Manitoba, R0G 0J0, Canada",48.063926696777344,CKD7
YHM,Cayuga,42.9497266,-79.8585358,"Cayuga, Haldimand County, Ontario, N0A 1E0, Canada",25.656871795654297,CYHM
YRG,Cranford,54.2209009,-57.9549086,"Cranford Head, Labrador, Newfoundland and Labrador, Canada",33.00996017456055,CCZ2
YYL,Deep Bay,56.4077709,-102.9878157,"Deep Bay, Unorganized Division No. 18, Division No. 18, Saskatchewan, Canada",105.30316162109375,CYYL
YQF,Didsbury,51.656763,-114.137568183229,"Didsbury, Alberta, Canada",60.76713562011719,CYQF
YSC,Disraeli,45.9049116,-71.3596454,"Disraeli (ville), Les Appalaches, Chaudière-Appalaches, Québec, G0N 1E0, Canada",57.905452728271484,CYSC
YFC,Durham Bridge,46.1255818,-66.6090704,"Durham Bridge, Saint Marys Parish, York County / Comté d'York, New Brunswick / Nouveau-Brunswick, E6C 1K8, Canada",29.076631546020508,CYFC
YQY,Eskasoni,45.9460215,-60.600953,"Eskasoni First Nation, Cape Breton County, Nova Scotia, Canada",48.94489288330078,CYQY
YCT,Flagstaff County,52.7117756,-111.8125764,"Flagstaff County, Alberta, Canada",75.07054901123047,CYCT
YGK,Frontenac,44.6102902,-76.6330415,"Frontenac County, Eastern Ontario, Ontario, Canada",42.905155181884766,CYGK
YYG,Georgetown,46.1844077,-62.5315437,"Georgetown, Town of Three Rivers, Kings County, Prince Edward Island, Canada",46.838748931884766,CYYG
YXD,Granville,53.5046636,-113.682685,"Granville, The Grange, Edmonton, Division No. 11, Alberta, T5P 4K2, Canada",13.078407287597656,CYEG
PMB,Hanover,49.4215895,-96.7814848768908,"Rural Municipality of Hanover, Division No. 2, Manitoba, Canada",62.86834716796875,CKA4
YHZ,Harrigan Cove,44.931389,-62.2961147,"Harrigan Cove, Halifax Regional Municipality, Halifax County, Nova Scotia, Canada",95.65447998046875,CYHZ
YPQ,Harwood,44.1404478,-78.1821844,"Harwood, Hamilton Township, Northumberland County, Central Ontario, Ontario, K9J 6X8, Canada",17.541595458984375,CYPQ
YBX,Hawke's Bay,50.61196615,-57.2071007020072,"Hawkes Bay, Newfoundland, Newfoundland and Labrador, A0K 3B0, Canada",92.48612976074219,CYBX
YYT,Hodge's Cove,48.01287395,-53.7413004841424,"Hodge's Cove, Newfoundland, Newfoundland and Labrador, Canada",85.90605163574219,CYYT
YHE,Hope,49.3799622,-121.44162,"Hope, Fraser Valley Regional District, British Columbia, Canada",4.2830305099487305,CBB7
YQM,Hopewell Hill,45.7659024,-64.6834075,"Hopewell Hill, Hopewell Parish, Albert County, New Brunswick / Nouveau-Brunswick, Canada",38.508575439453125,CYQM
YQY,Howie Centre,46.0749685,-60.2689345,"Howie Centre, Cape Breton Regional Municipality, Cape Breton County, Nova Scotia, B1L 1C6, Canada",19.567468643188477,CYQY
YYC,Irricana,51.3200105,-113.603134,"Town of Irricana, Alberta, T0M 1B0, Canada",29.2261962890625,CYYC
YEN,Kenosee Lake,49.8339235,-102.2850496,"Kenosee Lake, Division No. 1, Saskatchewan, S0C 2S0, Canada",84.99681091308594,CYEN
YXU,Kilworth,42.965013,-81.3819121,"Kilworth, Ontario, N6K 0B4, Canada",20.135257720947266,CYXU
YVO,Kitcisakik,47.5394337,-77.4589026,"Kitcisakik, Réservoir-Dozois, La Vallée-de-l'Or, Québec, Canada",62.050270080566406,CYVO
YBG,L'Anse-Saint-Jean,48.235193,-70.201263,"L'Anse-Saint-Jean, Le Fjord-du-Saguenay, Saguenay–Lac-Saint-Jean, Québec, G0V 1J0, Canada",59.784690856933594,CYBG
YTM,La Macaza,46.371279,-74.7726264,"La Macaza, Antoine-Labelle, Laurentides, Québec, Canada",4.276516914367676,CYFJ
YQX,La Scie,49.9500953,-55.6096643519092,"La Scie, Newfoundland, Newfoundland and Labrador, A0K 3M0, Canada",135.5086669921875,CYQX
YRJ,Lac-Bouchette,48.259427,-72.184296,"Lac-Bouchette, Le Domaine-du-Roy, Saguenay–Lac-Saint-Jean, Québec, Canada",29.58993911743164,CYRJ
YTA,Lake Saint Peter,45.3123436,-78.0377838,"Lake Saint Peter Road, Hastings Highlands, Hastings County, Central Ontario, Ontario, K0L 2K0, Canada",51.68179702758789,CYTA
ZBM,Lawrenceville,45.4328252,-72.3420127146212,"Lawrenceville, Le Val-Saint-François, Estrie, Québec, Canada",34.97254943847656,CZBM
YKY,Leader,50.8878217,-109.5449145,"Leader, Division No. 8, Saskatchewan, S0N 1H0, Canada",74.4663314819336,CYKY
YCT,Lougheed,52.7433563,-111.546907,"Village of Lougheed, Division No. 7, Alberta, Canada",74.63860321044922,CYCT
YPW,Lund,49.9816629,-124.759123,"Lund, Area A (Malaspina/Toba), qathet Regional District, British Columbia, V0N 2G0, Canada",15.193131446838379,CYPW
YTA,Mansfield-et-Pontefract,45.8533592,-76.7329729,"Mansfield-et-Pontefract, Québec, Canada",40.18868637084961,CYTA
YMX,Montcalm,45.9235706,-73.6530537,"Montcalm, Lanaudière, Québec, Canada",40.37608337402344,CSY3
YXJ,Montney,56.4505164,-120.9253289,"Montney, Area B (Finlay Valley/Beatton Valley), Peace River Regional District, British Columbia, V0C 1Y0, Canada",26.236133575439453,CYXJ
YDF,Mount Moriah,48.9655456,-58.0449051,"Mount Moriah, Newfoundland, Newfoundland and Labrador, Canada",54.84895324707031,CYDF
YBR,Neepawa,50.2319353,-99.4637261,"Neepawa, Division No. 15, Manitoba, R0J 1H0, Canada",49.95299530029297,CYBR
ZBF,New Bandon Northumb Co,47.7567351,-65.3156044,"New Bandon, New Bandon Parish, Gloucester County, New Brunswick / Nouveau-Brunswick, Canada",34.68803787231445,CZBF
YPD,Nobel,45.4121932,-80.0857508,"Nobel, McDougall Township, Parry Sound District, Central Ontario, Ontario, Canada",26.390623092651367,CNL7
YQX,Norris Arm North Side,49.083761,-55.266724,"Norris Arm, Newfoundland, Newfoundland and Labrador, Canada",53.50701141357422,CYQX
YYT,North River,47.5438167,-53.3122422,"North River, Newfoundland, Newfoundland and Labrador, A0A 3C0, Canada",42.84366989135742,CYYT
YYG,North Wiltshire,46.3014801,-63.333024,"North Wiltshire, Queens County, Prince Edward Island, C0A 1Y0, Canada",16.33169174194336,CYYG
YQX,Northern Arm,49.169134,-55.384827,"Northern Arm, Newfoundland, Newfoundland and Labrador, Canada",64.87740325927734,CYQX
YDN,Onanole,50.6235548,-99.9690366,"Onanole, Municipality of Harrison Park, Division No. 15, Manitoba, R0J 1N0, Canada",53.38576889038086,CYDN
YXE,Outlook,51.4866125,-107.0610496,"Outlook, Division No. 11, Saskatchewan, S0L 2N0, Canada",80.02165222167969,CYXE
YSU,Palmer Road,46.9126713,-64.1584622,"Palmer Road, Prince County, Prince Edward Island, Canada",58.04875564575195,CCE2
YPL,Pickle Lake,51.4648142,-90.1925284,"Pickle Lake, Pickle Lake Township, Kenora District, Northwestern Ontario, Ontario, P0V 3A0, Canada",2.5392959117889404,CYPL
YWG,Pleasant Home,50.285829,-97.314148,"Rural Municipality of Rockwood, Division No. 14, Manitoba, R0C 0B0, Canada",42.124603271484375,CYWG
YQY,Point Edward,46.1626865,-60.276691,"Point Edward, Cape Breton Regional Municipality, Cape Breton County, Nova Scotia, B2A 4V8, Canada",17.629013061523438,CYQY
YQS,Port Rowan,42.623613,-80.450178,"Port Rowan, Norfolk County, Ontario, N0E 1M0, Canada",56.38852310180664,CYXU
YZX,Port Williams,45.0979991,-64.4100054,"Port Williams, Municipality of the County of Kings, Kings County, Nova Scotia, Canada",41.781898498535156,CYZX
YQI,Pubnico,43.7024423,-65.7839702,"Pubnico, Argyle Municipal District, Yarmouth County, Nova Scotia, B0W 2W0, Canada",28.070919036865234,CYQI
YTR,Quinte West,44.191211,-77.5666791,"Quinte West (city), Central Ontario, Ontario, K0K 1E0, Canada",8.609539985656738,CYTR
YQB,Québec City,46.8137431,-71.2084061,"Québec, Agglomération de Québec, Capitale-Nationale, Québec, Canada",14.296844482421875,CYQB
YSD,Rosemary,50.7550415,-112.086933,"Rosemary, Division No. 2, Alberta, T0J 2W0, Canada",83.86965942382812,CYBP
YUL,Rosemère,45.6323155,-73.8052338,"Rosemère, Thérèse-De Blainville, Laurentides, Québec, Canada",14.586274147033691,CYUL
YFC,Saint George,45.2296573,-66.8435608152274,"Saint George Parish, Charlotte County, New Brunswick / Nouveau-Brunswick, Canada",47.912872314453125,CYFC
YAY,Saint Lunaire-Griquet,51.519853,-55.463104,"St. Lunaire-Griquet, Newfoundland, Newfoundland and Labrador, A0K 2X0, Canada",45.25265884399414,CYAY
YMX,Saint-Alexis-de-Montcalm,45.9324831,-73.612731,"Saint-Alexis-de-Montcalm, Saint-Alexis, Montcalm, Lanaudière, Québec, J0K 2R0, Canada",43.376075744628906,CSY3
YHU,Saint-Charles-sur-Richelieu,45.6899758,-73.1858228,"Saint-Charles-sur-Richelieu, La Vallée-du-Richelieu, Montérégie, Québec, J0H 2G0, Canada",26.28606605529785,CSY3
YRQ,Saint-Edmond-de-Grantham,45.8819778,-72.6752506,"Saint-Edmond-de-Grantham, Drummond, Centre-du-Québec, Québec, Canada",52.35391616821289,CYRQ
YHU,Saint-Hubert,45.5042755,-73.4216976,"Saint-Hubert, Longueuil, Agglomération de Longueuil, Montérégie, Québec, J3Y 4B5, Canada",1.5174609422683716,CYUL
YQB,Saint-Jules,46.223315,-70.947647,"Saint-Jules, Beauce-Centre, Chaudière-Appalaches, Québec, Canada",71.7582015991211,CYQB
YQB,Saint-Léon-de-Standon,46.4786359,-70.6179147,"Saint-Léon-de-Standon, Bellechasse, Chaudière-Appalaches, Québec, G0R 4L0, Canada",68.64402770996094,CYQB
YHU,Saint-Léonard,45.58671,-73.5969488,"Saint-Léonard, Montréal, Agglomération de Montréal, Montréal (région administrative), Québec, Canada",12.146819114685059,CYUL
YQB,Saint-Marc-des-Carrières,46.6827033,-72.049608,"Saint-Marc-des-Carrières, Portneuf (MRC), Capitale-Nationale, Québec, G0A 4B0, Canada",48.294471740722656,CYQB
YHU,Saint-Marc-sur-Richelieu,45.6771865,-73.1940958,"Saint-Marc-sur-Richelieu, La Vallée-du-Richelieu, Montérégie, Québec, J0L 2E0, Canada",24.81484603881836,CSY3
YQB,Saint-Narcisse-de-Beaurivage,46.4837253,-71.2330691,"Saint-Narcisse-de-Beaurivage, Lotbinière (MRC), Chaudière-Appalaches, Québec, G0S 1W0, Canada",36.30194854736328,CYQB
YML,Saint-Pacôme,47.40625,-69.952011,"Saint-Pacôme, Kamouraska (MRC), Bas-Saint-Laurent, Québec, G0L 3X0, Canada",29.485416412353516,CYML
YXK,Saint-Simon-sur-Mer,48.2206316,-69.0590132,"Saint-Simon-sur-Mer, Saint-Simon, Les Basques, Bas-Saint-Laurent, Québec, G0L 4C0, Canada",50.44921112060547,CYXK
YQB,Saint-Sylvestre,46.363515,-71.226768,"Saint-Sylvestre, Lotbinière (MRC), Chaudière-Appalaches, Québec, G0S 3C0, Canada",49.21968460083008,CYQB
YMX,Sainte-Anne-des-Plaines,45.76417,-73.818855,"Sainte-Anne-des-Plaines, Thérèse-De Blainville, Laurentides, Québec, J0N 1H0, Canada",19.490890502929688,CYUL
YJN,Sainte-Clotilde-de-Châteauguay,45.1525543,-73.6704148925654,"Centre communautaire Ste-Clothide de chateauguay, 2e Rang, Sainte-Clotilde, Les Jardins-de-Napierville, Montérégie, Québec, Canada",30.01303482055664,CYUL
YTA,Scotch Bush,45.4566718,-76.9733847,"Scotch Bush Road, Bonnechere Valley, Renfrew County, Eastern Ontario, Ontario, Canada",50.232357025146484,CYTA
YQB,Scott,46.504773,-71.071243,"Scott, La Nouvelle-Beauce, Chaudière-Appalaches, Québec, Canada",40.224708557128906,CYQB
YQB,Shannon,46.8871959,-71.5164368,"Shannon, La Jacques-Cartier, Capitale-Nationale, Québec, Canada",1.988075852394104,CYQB
YHZ,Sheet Harbour,44.9273954,-62.5431429,"Sheet Harbour, Halifax Regional Municipality, Halifax County, Nova Scotia, B0J 3B0, Canada",76.21349334716797,CYHZ
ZBM,Shefford,45.3642563,-72.5645575486166,"Shefford, La Haute-Yamaska, Estrie, Québec, Canada",16.057674407958984,CZBM
YEM,Sheguiandah Indian Reserve 24,45.8788042,-81.9157583,"Sheguiandah, Manitoulin District, Northeastern Ontario, Ontario, P0P 1W0, Canada",5.996851921081543,CYEM
YVB,Shigawake,48.16047035,-65.1035931551884,"Shigawake, Bonaventure (MRC), Gaspésie–Îles-de-la-Madeleine, Québec, Canada",28.283855438232422,CYVB
YZH,Slave Lake,55.2810741,-114.7717876,"Town of Slave Lake, Municipal District of Lesser Slave River, Alberta, Canada",1.3771909475326538,CYZH
YQY,South Mountain,46.8658,-60.425002,"South Mountain, Municipality of Victoria County, Victoria County, Nova Scotia, Canada",83.474853515625,CYQY
YPS,Springfield,45.4543511,-61.8631555,"Springfield, Municipality of the County of Antigonish, Antigonish County, Nova Scotia, Canada",44.63184356689453,CYPD
YZH,Sucker Creek Indian Reserve 23,55.4043347,-116.15318077946,"150A Sucker Creek Indian Reserve, Division No. 17, Alberta, Canada",20.355566024780273,CYZH
YQD,The Pas,53.8224172,-101.2405153,"The Pas, Division No. 21, Manitoba, Canada",19.245914459228516,CYQD
YLK,Thornton,44.2708998,-79.7221475,"Thornton, Essa, Simcoe County, Central Ontario, Ontario, L0L 2N0, Canada",27.268007278442383,CYLS
YKZ,Tottenham,44.0225014,-79.8056098,"Tottenham, New Tecumseth, Simcoe County, Central Ontario, Ontario, L0G 1W0, Canada",39.167545318603516,CYYZ
YRI,Trois-Pistoles,48.122101,-69.169922,"Trois-Pistoles, Les Basques, Bas-Saint-Laurent, Québec, G0L 4K0, Canada",50.3637809753418,CYRI
YHU,Verchères,45.7727845,-73.355442,"Verchères, Marguerite-D'Youville, Montérégie, Québec, J0L 2R0, Canada",28.785415649414062,CSY3
YXR,Ville-Marie (Témiscamingue),47.332308,-79.438019,"Ville-Marie, Témiscamingue, Abitibi-Témiscamingue, Québec, Canada",50.92208480834961,CYXR
YKF,Wellington,43.7590121,-80.4614994,"Wellington County, Ontario, Canada",33.82470703125,CYKF
YRI,West Saint Modeste,47.832518,-69.403381,"Saint-Modeste, Rivière-du-Loup (MRC), Bas-Saint-Laurent, Québec, Canada",15.51771354675293,CYRI
CXH,West Vancouver,49.3311208,-123.159479,"West Vancouver, Metro Vancouver Regional District, British Columbia, Canada",5.387327671051025,CAP3
YVE,Westwold,50.4722357,-119.7739848,"Westwold, Area L (Grasslands), Thompson-Nicola Regional District, British Columbia, V0E 3B0, Canada",40.10765075683594,CZAM
YEM,Willisville,46.1302943,-81.7210771,"Willisville, Whitefish Falls, Unorganized North Sudbury, Sudbury District, Northeastern Ontario, Ontario, Canada",33.675289154052734,CYEM
YWG,Winnipeg,49.8955367,-97.1384584,"Winnipeg, Division No. 11, Manitoba, Canada",7.440951824188232,CYWG
YPS,Afton Station,45.6092942,-61.7421341,"Afton, Municipality of the County of Antigonish, Antigonish County, Nova Scotia, Canada",29.556299209594727,CYPD
YCE,Arkona,43.0734025,-81.8340336,"8480;7340, Arkona, Lambton Shores, Lambton County, Ontario, N0M 1B0, Canada",35.41644287109375,CYZR
YQY,Baddeck,46.0996814,-60.7535526,"Baddeck, Municipality of Victoria County, Victoria County, Nova Scotia, B0E 1B0, Canada",54.8166618347168,CYQY
YQA,Bala,45.0176521,-79.6169784,"Bala, Muskoka Lakes Township, District Municipality of Muskoka, Muskoka District, Central Ontario, Ontario, Canada",25.123371124267578,CYQA
YQM,Beaubassin-est,46.16060095,-64.3173746732499,"Beaubassin East, Shediac Parish, Westmorland County, New Brunswick / Nouveau-Brunswick, Canada",28.34835433959961,CYQM
QBC,Bella Bella,52.1625615,-128.145207,"Bella Bella, Area B (Bella Bella), Central Coast Regional District, British Columbia, V0T 1Z0, Canada",2.621431350708008,CYBD
YYG,Belle River,45.9867318,-62.8351857,"Belle River, Rural Municipality of Belfast, Queens County, Prince Edward Island, Canada",40.27992630004883,CYYG
MTC,Blenheim,42.3354182,-81.9974055,"Blenheim, Chatham-Kent, Ontario, N0P 2A0, Canada",7.659704685211182,CYCK
YYZ,Bolton,43.879548,-79.73826,"Bolton, Caledon, Peel Region, Golden Horseshoe, Ontario, L7E 1C8, Canada",24.103174209594727,CYYZ
YHM,Brantford,43.1408157,-80.2631733,"Brantford, Ontario, Canada",26.868253707885742,CYHM
YQX,Brighton,49.542751,-55.6406218,"Brighton, Newfoundland, Newfoundland and Labrador, Canada",102.95989990234375,CYQX
YHZ,Brookfield,45.26572075,-63.213613685827,"Brookfield, Municipality of Colchester, Colchester County, Nova Scotia, B0N 1C0, Canada",48.66754150390625,CYHZ
YHZ,Brookvale,45.0263439,-63.1085588,"Brookvale, Halifax Regional Municipality, Halifax County, Nova Scotia, B0N 1X0, Canada",35.39580154418945,CYHZ
YJT,Burnt Islands,47.6032562,-58.8757901,"Burnt Islands, Newfoundland, Newfoundland and Labrador, Canada",107.39157104492188,CYJT
YSJ,Campbell Settlement,45.6068104,-65.5392397,"Campbell Settlement, Sussex Parish, Kings County, New Brunswick / Nouveau-Brunswick, Canada",42.36216354370117,CYSJ
YYT,Cape Broyle,47.0985784,-52.9382943,"Cape Broyle, Newfoundland, Newfoundland and Labrador, A0A 1P0, Canada",59.5037841796875,CYYT
YPA,Christopher Lake,53.5397933,-105.7893144,"Christopher Lake, Division No. 15, Saskatchewan, Canada",37.01750183105469,CYPA
YTA,Cobden,45.6276233,-76.8790385,"Cobden, Whitewater Region, Renfrew County, Eastern Ontario, Ontario, K0J 1K0, Canada",39.10731887817383,CYTA
YQG,Comber,42.2324646,-82.5524942,"Comber, Lakeshore, Essex County, Ontario, N0P 1J0, Canada",33.521602630615234,CYQG
YSC,Compton,45.243228,-71.827927,"Compton, Coaticook (MRC), Estrie, Québec, Canada",24.203453063964844,CYSC
YRM,Crimson Lake,52.4579915,-115.037549897865,"Crimson Lake, Census Division No. 9, Alberta, Canada",9.582871437072754,CYRM
YRQ,Daveluyville,46.20431,-72.137604,"Daveluyville, Arthabaska, Centre-du-Québec, Québec, G0Z 1C0, Canada",44.792423248291016,CYRQ
YHU,Delson,45.3748635,-73.5412607,"Delson, Roussillon, Montérégie, Québec, Canada",18.59252166748047,CYUL
YQV,Ebenezer,51.3705351,-102.4471154,"Ebenezer, Division No. 9, Saskatchewan, Canada",11.813502311706543,CYQV
YWG,Elma,49.8744273,-95.9070334,"Elma, Rural Municipality of Whitemouth, Division No. 1, Manitoba, R0E 0Z0, Canada",95.56034851074219,CYWG
YKY,Empress,50.9552765,-110.0084001,"Empress, Alberta, T0J 1E0, Canada",85.00792694091797,CYKY
YGM,Eriksdale,50.866667,-98.1,"Eriksdale, Municipality of West Interlake, Division No. 18, Manitoba, R0H 0B0, Canada",78.93706512451172,CYGM
YKY,Eston,51.1493598,-108.7530146,"Eston, Division No. 8, Saskatchewan, S0L 1A0, Canada",50.59431457519531,CYKY
YYG,Gaspereaux,46.1063898,-62.4677765,"Gaspereaux, Town of Three Rivers, Kings County, Prince Edward Island, Canada",54.27006912231445,CYYG
YPS,Georgeville,45.8239123,-62.0250521,"Georgeville, Municipality of the County of Antigonish, Antigonish County, Nova Scotia, Canada",54.26682662963867,CYPD
YYT,Harbour Main-Chapel Cove-Lakeview,47.4156108,-53.1691375749533,"Harbour Main - Chapel's Cove - Lakeview, Newfoundland, Newfoundland and Labrador, Canada",38.616756439208984,CYYT
YKF,Hartfield,43.5932027,-80.3092979290181,"Hartfield, Guelph/Eramosa, Wellington County, Ontario, Canada",15.747088432312012,CYKF
YSC,Hatley,45.185909,-71.93676,"Hatley, Memphrémagog, Estrie, Québec, Canada",34.02366638183594,CYSC
YYT,Heart's Content,47.8707148,-53.3642415,"Heart's Content, Newfoundland, Newfoundland and Labrador, A0B 1Z0, Canada",53.68627166748047,CYYT
YRM,Hoadley,52.85,-114.366667,"Hoadley, Division No. 8, Alberta, Canada",59.14997100830078,CYRM
YSU,Irishtown,46.500886,-63.5884517,"Irishtown, Queens County, Prince Edward Island, Canada",19.934907913208008,CCE2
YLK,Ivy,44.2878944,-79.7744453,"Ivy, Essa, Simcoe County, Central Ontario, Ontario, L0L 2N2, Canada",28.004121780395508,CYLS
YSD,Jenner,50.7481727,-111.1831348,"Jenner, Division No. 4, Alberta, T0J 1W0, Canada",53.537315368652344,CYBP
YEG,Keephills,53.441442,-114.3487948,"Hamlet of Keephills, Division No. 11, Alberta, Canada",45.0218505859375,CYEG
YLW,Kelowna,49.8879177,-119.495902,"Kelowna, Regional District of Central Okanagan, British Columbia, Canada",11.345818519592285,CYLW
YXD,Kenilworth,53.5213277,-113.431779,"Kenilworth, Edmonton, Division No. 11, Alberta, Canada",8.19299602508545,CYEG
YKZ,King City,43.929489,-79.5252267,"King City, King, York Region, Golden Horseshoe, Ontario, L7B 1A2, Canada",14.514695167541504,CYYZ
YQR,Kronau,50.306013,-104.2950163,"Kronau, Lajord No. 128, Division No. 6, Saskatchewan, S0G 2T0, Canada",29.803720474243164,CYQR
YDO,La Doré,48.713619,-72.649841,"La Doré, Le Domaine-du-Roy, Saguenay–Lac-Saint-Jean, Québec, Canada",21.40427589416504,CYDO
YQB,Lac-Delage,46.9706256,-71.401757,"Lac-Delage, La Jacques-Cartier, Capitale-Nationale, Québec, G3C 5G5, Canada",10.772843360900879,CYQB
YOW,Lac-des-Loups,45.6854007,-76.2109675,"Lac-des-Loups, La Pêche, Les Collines-de-l'Outaouais, Québec, J0X 3K0, Canada",50.640037536621094,CYOW
YLY,Langley (city),49.1039289,-122.657047,"City of Langley, Metro Vancouver Regional District, British Columbia, Canada",1.9281327724456787,CYXX
YQB,Levis,46.8033114,-71.1778792,"Lévis, Chaudière-Appalaches, Québec, Canada",16.454654693603516,CYQB
YFC,Mactaquac Provincial Park,45.9587396,-66.8983384320639,"Mactaquac Provincial Park, Grand View Lane, Mactaquac, Bright Parish, York County / Comté d'York, New Brunswick / Nouveau-Brunswick, E6L 1B5, Canada",29.670827865600586,CYFC
YLY,Maple Ridge,49.2197345,-122.599707,"Maple Ridge, Metro Vancouver Regional District, British Columbia, Canada",13.419271469116211,CYXX
ZMT,Masset,54.0124473,-132.1452236,"Masset, North Coast Regional District, British Columbia, V0T 1M0, Canada",2.1323862075805664,CZMT
YFC,McLeod Hill,45.9953987,-66.6684424,"McLeod Hill, Barton, Fredericton, York County / Comté d'York, New Brunswick / Nouveau-Brunswick, E3A 1B8, Canada",17.345653533935547,CYFC
YDF,Millertown,48.8143761,-56.5405084,"Millertown, Newfoundland, Newfoundland and Labrador, Canada",76.11878204345703,CYDF
YQY,Millville Boularderie,46.27171,-60.3405168,"Millville Boularderie, Millville, Cape Breton Regional Municipality, Cape Breton County, Nova Scotia, B1Y 2N5, Canada",25.64525032043457,CYQY
YKF,Milverton,43.5658442,-80.9221724,"Milverton, Perth East, Perth County, Ontario, N0K 1M0, Canada",45.36318588256836,CYKF
YQA,Minden,44.9254436,-78.72493,"Minden, Minden Hills, Haliburton County, Central Ontario, Ontario, K0M 2K0, Canada",45.843177795410156,CYQA
YKF,Moorefield,43.7620442,-80.7456869,"Moorefield, Mapleton, Wellington County, Ontario, N0G 2K0, Canada",44.67049789428711,CYKF
YOW,Mountain,45.0338251,-75.4948856,"Mountain, North Dundas, Stormont, Dundas and Glengarry Counties, Eastern Ontario, Ontario, K0E 1S0, Canada",34.885826110839844,CYOW
YJN,Napierville,45.18608,-73.4042485,"Napierville, Les Jardins-de-Napierville, Montérégie, Québec, Canada",15.428715705871582,CYUL
YCH,Neguac,47.2469012,-65.0767222,"Neguac, Alnwick Parish, Northumberland County, New Brunswick / Nouveau-Brunswick, Canada",38.741981506347656,CYCH
PMB,Neubergthal,49.074449,-97.482023,"Neubergthal, Municipality of Rhineland, Division No. 3, Manitoba, Canada",22.909156799316406,CJL6
YKZ,Newmarket,44.056258,-79.461708,"Newmarket, East Gwillimbury, York Region, Golden Horseshoe, Ontario, Canada",22.79241180419922,CYYZ
YND,Notre-Dame-de-la-Paix,45.8081565,-74.9653748,"Notre-Dame-de-la-Paix, Papineau, Québec, J0V 1P0, Canada",36.29715347290039,CSZ3
ZBF,Notre-Dame-des-Érables,47.6382286,-65.2406203,"Notre-Dame-des-Érables, Paquetville Parish, Gloucester County, New Brunswick / Nouveau-Brunswick, Canada",37.348228454589844,CZBF
YRI,Notre-Dame-du-Portage,47.7672259,-69.6105212,"Notre-Dame du-Portage, Rivière-du-Loup (MRC), Bas-Saint-Laurent, Québec, Canada",1.9551981687545776,CYRI
YZR,Oil Springs,42.7838172,-82.126915,"Oil Springs, Lambton County, Ontario, N0N 1P0, Canada",28.185924530029297,CYZR
YYF,Okanagan Falls,49.3454662,-119.573614,"Okanagan Falls, Area D (Skaha East/Okanagan Falls), Regional District of Okanagan-Similkameen, British Columbia, V0H 1R0, Canada",13.240592002868652,CAU3
YZX,Paradise,44.8697855,-65.2075188,"Paradise, Municipality of the County of Annapolis, Annapolis County, Nova Scotia, B0S 1R0, Canada",26.189617156982422,CYZX
YXJ,Peace River,56.9023215,-122.627278,"Peace River Regional District, British Columbia, Canada",104.3466796875,CYXJ
YHZ,Peggys Cove,44.4937733,-63.9148632,"Peggys Cove, Halifax Regional Municipality, Halifax County, Nova Scotia, Canada",53.69851303100586,CYHZ
ZBF,Petit-Rocher,47.7815088,-65.7175991,"Petit Rocher, Beresford Parish, Gloucester County, New Brunswick / Nouveau-Brunswick, E8J 1S5, Canada",16.955501556396484,CZBF
YOD,Pierceland,54.340278,-109.776944,"Pierceland, Division No. 17, Saskatchewan, S0M 2K0, Canada",33.3060417175293,CYOD
YQB,Pointe-aux-Trembles-Ouest,46.6858743,-71.6610717,"Pointe-aux-Trembles-Ouest, Neuville, Portneuf (MRC), Capitale-Nationale, Québec, G3M 0K1, Canada",23.52195167541504,CYQB
YQQ,Port Alberni,49.2343668,-124.8056517,"Port Alberni, Alberni-Clayoquot Regional District, British Columbia, Canada",13.319825172424316,CYQQ
YHA,Port Hope Simpson,52.5459688,-56.3006239,"Port Hope Simpson, Labrador, Newfoundland and Labrador, Canada",2.216623067855835,CCP4
YPA,Prince Albert,53.201097,-105.748901,"Prince Albert, Division No. 15, Saskatchewan, Canada",5.260734558105469,CYPA
YTA,Quadeville,45.3139332,-77.3786463,"Quadeville, Brudenell, Lyndoch and Raglan, Renfrew County, Eastern Ontario, Ontario, Canada",42.57649230957031,CYTA
YWA,Rolphton,46.1770206,-77.6945748,"Rolphton, Laurentian Hills, Renfrew County, Eastern Ontario, Ontario, K0J 2H0, Canada",38.258060455322266,CYWA
YJN,Roxham,45.0297856,-73.5187106,"Roxham, Saint-Bernard-de-Lacolle, Les Jardins-de-Napierville, Montérégie, Québec, Canada",12.915310859680176,CYUL
YCC,Saint-Anicet,45.1388097,-74.3612258,"Saint-Anicet, Le Haut-Saint-Laurent, Montérégie, Québec, Canada",16.661291122436523,CYCC
YXR,Saint-Bruno-de-Guigues,47.462451,-79.439392,"Saint-Bruno-de-Guigues, Québec, J0Z 2G0, Canada",40.23509216308594,CYXR
YDO,Saint-Félicien,48.654232,-72.448654,"Saint-Félicien, Le Domaine-du-Roy, Saguenay–Lac-Saint-Jean, Québec, Canada",14.83694076538086,CYDO
YQB,Saint-Jacques-de-Leeds,46.288359,-71.337662,"Saint-Jacques-de-Leeds, Les Appalaches, Chaudière-Appalaches, Québec, G0N 1J0, Canada",56.06407928466797,CYQB
YGP,Saint-Maxime-du-Mont-Louis,49.1904619,-65.62753482007,"Saint-Maxime-du-Mont-Louis, La Haute-Gaspésie, Gaspésie–Îles-de-la-Madeleine, Québec, G0E 1T0, Canada",95.71150207519531,CYGP
YRQ,Saint-Narcisse,46.564054,-72.472,"Saint-Narcisse, Les Chenaux, Mauricie, Québec, G0X 2Y0, Canada",28.35828971862793,CYRQ
YMX,Saint-Sauveur (Les Pays-d'en-Haut),45.894309,-74.158058,"Saint-Sauveur, Les Pays-d'en-Haut, Laurentides, Québec, Canada",25.61603546142578,CSZ3
YMX,Sainte-Anne-des-Lacs,45.8615511,-74.1244186,"Sainte-Anne-des-Lacs, Les Pays-d'en-Haut, Laurentides, Québec, J0R 1B0, Canada",21.30702018737793,CSZ3
YSC,Sainte-Catherine-de-Hatley,45.23379925,-72.0509039284145,"Sainte-Catherine-de-Hatley, Memphrémagog, Estrie, Québec, J0B 1W0, Canada",36.16936492919922,CYSC
YPS,Scotsville,46.1860109,-61.1564258,"Scotsville, Municipality of the County of Inverness, Inverness County, Nova Scotia, Canada",61.09172058105469,CYPD
YAY,Shoal Cove,51.366667,-56.616667,"Shoal Cove, Newfoundland, Newfoundland and Labrador, Canada",37.13764953613281,CYAY
YYG,Sundridge,45.7104857,-62.850454,"Sundridge, Municipality of Pictou County, Pictou County, Nova Scotia, Canada",67.74537658691406,CYYG
YLW,Swalwell,50.05313715,-119.227036187855,"Swalwell Lake, East Central Okanagan Electoral Area, Regional District of Central Okanagan, British Columbia, Canada",15.258622169494629,CYLW
YHZ,Tantallon,44.6635863,-63.8957978,"Tantallon, Halifax Regional Municipality, Halifax County, Nova Scotia, Canada",38.95612716674805,CYHZ
YGB,Texada Island Land District,49.63702575,-124.417105401685,"Texada Island Land District, qathet Regional District, British Columbia, Canada",9.651018142700195,CYGB
YEG,Tomahawk,53.3968979,-114.7636632,"Tomahawk, Division No. 11, Alberta, T0E 2B0, Canada",19.5570125579834,CYEG
YDT,Tsawwassen,49.016667,-123.083333,"Tsawwassen, Delta, Metro Vancouver Regional District, British Columbia, V4M 2P3, Canada",8.243525505065918,CYYJ
YQU,Valleyview,55.0746283,-117.2798053,"Valleyview (town), Alberta, T0H 0C8, Canada",62.14453125,CYQU
YVO,Vassan,48.2289672,-77.9332753,"Vassan, Val-d'Or, La Vallée-de-l'Or, Québec, Canada",22.499357223510742,CYVO
YQR,Vibank,50.3340225,-103.9457348,"Vibank, Division No. 6, Saskatchewan, S0G 4Y0, Canada",52.21622085571289,CYQR
YTA,Waltham,45.907211,-76.908417,"Waltham, Québec, J0X 3H0, Canada",26.993906021118164,CYTA
YHZ,Walton,45.2001837,-63.9898685,"Walton, Region of Windsor and West Hants Municipality, Hants County, Nova Scotia, B0N 2R0, Canada",51.87608337402344,CYHZ
YTR,Warkworth,44.2019073,-77.8868553,"Warkworth, Trent Hills, Northumberland County, Central Ontario, Ontario, K0K 3K0, Canada",30.069746017456055,CYTR
WPC,Waterton Lakes National Park of Canada,49.10111735,-113.981007631905,"Waterton Lakes National Park, Division No. 3, Alberta, T0K 2M0, Canada",46.65874481201172,CZPC
YDN,Waywayseecappo,50.7203531,-100.877893,"Wewezhigaabawing / Waywayseecappo, Division No. 16, Manitoba, Canada",71.71116638183594,CYDN
YYT,Whitbourne,47.4162246,-53.5269386,"Whitbourne, Newfoundland, Newfoundland and Labrador, A0B 3K0, Canada",62.4017448425293,CYYT
YWG,Whitemouth,49.9541656,-95.9766181,"Whitemouth, Rural Municipality of Whitemouth, Division No. 1, Manitoba, R0E 2G0, Canada",90.55242919921875,CYWG
YZD,Woodbridge,43.7848982,-79.5923855,"Woodbridge, Vaughan, York Region, Golden Horseshoe, Ontario, L4L 9L9, Canada",11.220088005065918,CYYZ
YQR,Balgonie,50.4892758,-104.2669058,"Balgonie, Division No. 6, Saskatchewan, S0G 0E0, Canada",28.96240234375,CYQR
YWG,Balmoral,50.2558203,-97.3204529,"Balmoral, Rural Municipality of Rockwood, Division No. 14, Manitoba, Canada",38.880706787109375,CYWG
YHZ,Bayside,44.5277768,-63.8070447,"Bayside, Halifax Regional Municipality, Halifax County, Nova Scotia, Canada",45.7954216003418,CYHZ
MQC,Bear Island,47.61255325,-57.3768696299233,"Bear Island, Newfoundland, Newfoundland and Labrador, Canada",94.5577621459961,CYJT
PQI,Beechwood,46.5433619,-67.6590973,"Beechwood, Kent Parish, Carleton County, New Brunswick / Nouveau-Brunswick, Canada",33.61679458618164,CCH2
YQM,Berry Mills,46.1097069,-64.9368862,"Berry Mills, Moncton Parish, Westmorland County, New Brunswick / Nouveau-Brunswick, E1G 3S5, Canada",19.912843704223633,CYQM
YQF,Blackfalds,52.3865007,-113.783128592245,"Blackfalds, Alberta, Canada",23.936185836791992,CYQF
YXE,Blaine Lake,52.8278099,-106.8778567,"Blaine Lake, Division No. 16, Saskatchewan, S0J 0J0, Canada",74.04171752929688,CYXE
YSU,Breadalbane,46.3576099,-63.5008749,"Breadalbane, Queens County, Prince Edward Island, Canada",27.132036209106445,CYYG
YLK,Brechin,44.5467964,-79.1762435,"Brechin, Ramara Township, Simcoe County, Central Ontario, Ontario, L0K 1B0, Canada",30.846208572387695,CYLS
ZBM,Brigham,45.2463988,-72.8454198,"Brigham, Brome-Missisquoi, Estrie, Québec, J2K 4V6, Canada",9.520317077636719,CZBM
YSH,Calabogie,45.30218,-76.725769,"Calabogie, Greater Madawaska, Renfrew County, Eastern Ontario, Ontario, K0J 1H0, Canada",73.2464828491211,CMW3
YZR,Camlachie,43.0364448,-82.1630285,"Camlachie, Plympton-Wyoming, Lambton County, Ontario, N0N 1E0, Canada",12.554130554199219,CYZR
YOS,Chesley,44.29874,-81.0952892,"Chesley, Arran–Elderslie, Bruce County, Ontario, N0G 1L0, Canada",38.33881378173828,CYOS
YXD,Chipman,53.698158,-112.6368628,"Village of Chipman, Division No. 10, Alberta, T0B 0W0, Canada",59.94230270385742,CFU3
YQU,Clairmont,55.2623283,-118.7906709,"Clairmont, Hamlet of Clairmont, Division No. 19, Alberta, T0H 0W0, Canada",10.964350700378418,CYQU
WPC,Claresholm,50.0239458,-113.5800285,"Claresholm, Division No. 3, Alberta, T0L 0T0, Canada",56.7105827331543,CZPC
YTA,Combermere,45.3631614,-77.6182971,"Combermere, Madawaska Valley, Renfrew County, Eastern Ontario, Ontario, K0J 1L0, Canada",33.373687744140625,CYTA
YQX,Cottlesville,49.511835,-54.868469,"Cottlesville, Newfoundland, Newfoundland and Labrador, Canada",67.54862976074219,CYQX
YDF,Deer Lake,49.1830366,-57.4320002,"Deer Lake, Newfoundland, Newfoundland and Labrador, Canada",4.27011251449585,CYDF
YYC,Delacour,51.1538815,-113.7721332,"Delacour, Rocky View County, Alberta, T1Z 0E6, Canada",14.893714904785156,CYYC
YDT,Delta,49.0846258,-123.057938,"Delta, Metro Vancouver Regional District, British Columbia, Canada",3.5409364700317383,CYXX
DRE,Desbarats,46.346326,-83.9229137,"Desbarats, Johnson Township, Algoma District, Northeastern Ontario, Ontario, P0R 1E0, Canada",15.37131404876709,CPV3
YSC,Dixville,45.067701,-71.770935,"Dixville, Coaticook (MRC), Estrie, Québec, Canada",41.17045974731445,CYSC
YRO,East Aldfield,45.7469638,-76.1844572,"East Aldfield, La Pêche, Les Collines-de-l'Outaouais, Québec, J0X 1S0, Canada",52.614681243896484,CPF4
YPW,Egmont,49.7498134,-123.9319648,"Egmont, Area A (Egmont/Pender Harbour), Sunshine Coast Regional District, British Columbia, V0N 1N0, Canada",15.526363372802734,CYPW
YXH,Elkwater,49.6613715,-110.2823464,"Elkwater, Division No. 1, Alberta, T0J 1C0, Canada",50.69540023803711,CYXH
YHB,Endeavour,52.1597603,-102.6565785,"Endeavour, Division No. 9, Saskatchewan, Canada",76.70436096191406,CYHB
YLK,Everett,44.1956091,-79.937746,"Everett, Adjala–Tosorontio, New Tecumseth, Simcoe County, Central Ontario, Ontario, L0M 1J0, Canada",44.285316467285156,CYLS
YTM,Ferme-Neuve,46.7010748,-75.4497514,"Ferme-Neuve, Antoine-Labelle, Laurentides, Québec, Canada",60.61760711669922,CYFJ
YOS,Flesherton,44.2610602,-80.5457496,"Flesherton, Grey Highlands, Grey County, Ontario, N0C 1E0, Canada",43.325016021728516,CYOS
YQX,Fogo,49.715601,-54.283447,"Fogo, Newfoundland, Newfoundland and Labrador, A0G 2B0, Canada",89.01091766357422,CYQX
YBX,Forteau,51.46466335,-56.9377146848319,"Forteau, Labrador, Newfoundland and Labrador, A0K 2P0, Canada",17.31430435180664,CYBX
YYT,Fox Harbour,47.317543,-53.9016307897791,"Fox Harbour, Newfoundland, Newfoundland and Labrador, Canada",92.67875671386719,CYYT
YUL,Franklin,45.05206385,-73.8986448304326,"Franklin, Le Haut-Saint-Laurent, Montérégie, Québec, Canada",42.592594146728516,CYUL
YQY,Frenchvale,46.1012644,-60.3917916,"Frenchvale, Cape Breton Regional Municipality, Cape Breton County, Nova Scotia, Canada",27.338180541992188,CYQY
CXH,Gibsons,49.4006197,-123.508918,"Gibsons, Sunshine Coast Regional District, British Columbia, Canada",16.59234046936035,CAP3
YXT,Gitwinksihlkw,55.1931199,-129.2222031,"Gitwinksihlkw, British Columbia, V0J 3T0, Canada",34.60577392578125,CYXT
YQB,Grondines,46.592662,-72.0406309,"Grondines, Deschambault-Grondines, Portneuf (MRC), Capitale-Nationale, Québec, Canada",53.55027389526367,CYQB
YYG,Hampshire,46.2865944,-63.2798598,"Hampshire, Queens County, Prince Edward Island, Canada",12.20473861694336,CYYG
OGS,Hulbert,44.9773161,-75.3899993,"Hulbert, South Dundas, Stormont, Dundas and Glengarry Counties, Eastern Ontario, Ontario, K0E 1C0, Canada",33.3840446472168,CYOW
MSS,Ingleside,44.9954941,-74.9867427,"Ingleside, South Stormont, Stormont, Dundas and Glengarry Counties, Eastern Ontario, Ontario, K0C 1M0, Canada",12.937220573425293,CYCC
YPS,Inverness,46.1681871,-61.2197425,"Inverness County, Nova Scotia, Canada",58.021358489990234,CYPD
YML,Kamouraska,47.4680992,-69.7909498,"Kamouraska (MRC), Bas-Saint-Laurent, Québec, Canada",35.54620361328125,CYML
YCE,Kirkton,43.3242552,-81.3134384,"Kirkton, South Huron, Huron County, Ontario, N0K 2A0, Canada",16.34330177307129,CYXU
YCO,Kugluktuk,67.8260952,-115.1073221,"Kugluktuk, ᕿᑎᕐᒥᐅᑦ Kitikmeot Region, ᓄᓇᕗᑦ Nunavut, X0B 0E0, Canada",1.8602086305618286,CYCO
YPS,L'Ardoise,45.6133234,-60.7613448,"L'Ardoise, Municipality of the County of Richmond, Richmond County, Nova Scotia, B0E 1S0, Canada",47.42130661010742,CYPD
YRQ,La Tuque,47.441092,-72.78511,"La Tuque, Agglomération de La Tuque, Mauricie, Québec, Canada",3.5024425983428955,CYRQ
YQB,Lamartine,46.78725835,-71.1767367112629,"Parc Lamartine, Lévis (quartier), Desjardins, Lévis, Chaudière-Appalaches, Québec, Canada",16.493494033813477,CYQB
YQR,Lang,49.9189149,-104.3715121,"Lang, Division No. 2, Saskatchewan, S0G 2W0, Canada",60.7743034362793,CYQR
YQX,Lushes Bight-Beaumont-Beaumont North,49.6245204,-55.6536143630467,"Lushes Bight-Beaumont-Beaumont North, Newfoundland, Newfoundland and Labrador, Canada",109.7536849975586,CYQX
YEM,M'Chigeeng Indian Reserve 22,45.807471,-82.1773246164727,"M'Chigeeng First Nation, M’Chigeeng, Manitoulin District, Northeastern Ontario, Ontario, P0P 1G0, Canada",25.045473098754883,CYEM
YDG,Maitland Bridge,44.4486318,-65.2019826,"Maitland Bridge, Municipality of the County of Annapolis, Annapolis County, Nova Scotia, B0T 1N0, Canada",47.520606994628906,CYID
YRQ,Maskinongé,46.4884529,-73.0348785,"Maskinongé (MRC), Mauricie, Québec, Canada",31.14520835876465,CYRQ
YTA,Maynooth,45.2313244,-77.9375008,"Maynooth, Hastings Highlands, Hastings County, Central Ontario, Ontario, K0L 2S0, Canada",54.65195846557617,CYTA
YPA,Melfort,52.8613707,-104.6135544,"Melfort, Division No. 14, Saskatchewan, Canada",36.804752349853516,CYPA
YQM,Moncton,46.097995,-64.80011,"Moncton, Westmorland County, New Brunswick / Nouveau-Brunswick, Canada",9.500429153442383,CYQM
YHU,Montréal-Est,45.6309797,-73.4977437,"Montréal-Est, Agglomération de Montréal, Montréal (région administrative), Québec, Canada",14.100099563598633,CYUL
YDP,Nain,56.54340345,-61.6928330158651,"Nain (Nunajnguk), Labrador, Newfoundland and Labrador, Canada",1.0026071071624756,CYDP
YLL,Neilburg,52.8376602,-109.6279954,"Neilburg, Division No. 13, Saskatchewan, Canada",60.27401351928711,CYLL
YWP,Neskantaga Indian Reserve,52.7393387,-87.4276172,"Neskantaga To Webequie Winter Road, Unorganized Kenora District, Kenora District, Northwestern Ontario, Ontario, Canada",24.724056243896484,CYWP
YPA,Nipawin,53.3627879,-104.017425,"Nipawin, Division No. 14, Saskatchewan, S0E 1E0, Canada",58.59189987182617,CYPA
YCC,North Lancaster,45.2453345,-74.5003591,"North Lancaster, South Glengarry, Stormont, Dundas and Glengarry Counties, Eastern Ontario, Ontario, K0C 1Z0, Canada",17.664234161376953,CYCC
YSC,Notre-Dame-des-Bois,45.394593,-71.073303,"Notre-Dame-des-Bois, Le Granit, Estrie, Québec, Canada",48.49162673950195,CYSC
YRI,Notre-Dame-des-Neiges,48.0966204,-69.2098316,"Notre-Dame-des-Neiges, Les Basques, Bas-Saint-Laurent, Québec, Canada",46.31082534790039,CYRI
YOW,Ottawa,45.4208777,-75.6901106,"Ottawa, Eastern Ontario, Ontario, Canada",6.048675537109375,CYOW
MTC,Pain Court,42.3903727,-82.2903281,"Pain Court, Chatham-Kent, Ontario, N0P 1Z0, Canada",19.508235931396484,CYCK
YQX,Point Leamington,49.3260845,-55.4275368790335,"Point Leamington, Newfoundland, Newfoundland and Labrador, A0H 1Z0, Canada",76.04419708251953,CYQX
YPD,Pointe au Baril,45.5594904,-80.5029507,"Pointe au Baril, The Archipelago Township, Parry Sound District, Central Ontario, Ontario, Canada",51.5667724609375,CNL7
YQX,Port Blandford,48.33867195,-54.1707709014005,"Port Blandford, Newfoundland, Newfoundland and Labrador, A0C 2G0, Canada",72.64482879638672,CYQX
YQM,Port Elgin,46.0451741,-64.0898064,"Port Elgin, Westmorland Parish, Westmorland County, New Brunswick / Nouveau-Brunswick, E4M 1C2, Canada",46.0223503112793,CYQM
YQS,Port Glasgow,42.510386,-81.6113477,"Port Glasgow, West Elgin, Elgin County, Ontario, Canada",44.7995491027832,CNA2
YZV,Port-Cartier,50.0187481,-66.8756913,"Port-Cartier, Sept-Rivières, Côte-Nord, Québec, Canada",49.08401870727539,CYZV
YKF,Puslinch,43.47750295,-80.1137701412102,"Puslinch, Wellington County, Ontario, Canada",21.452199935913086,CYKF
YAH,Québec,52.4760892,-71.8258668,"Québec, Canada",188.26617431640625,CYAH
YTR,RAWD,44.58180005,-77.5076679814898,"Madoc, Hastings County, Central Ontario, Ontario, K1K 2K0, Canada",51.497802734375,CYTR
YBA,Radium Hot Springs,50.6200728,-116.0760592,"Radium Hot Springs, Regional District of East Kootenay, British Columbia, V0A 1M0, Canada",35.280303955078125,CYBA
YVG,Ranfurly,53.4084668,-111.6804218,"Ranfurly, Division No. 10, Alberta, Canada",57.10316467285156,CYVG
YXD,Redwater,53.9527743,-113.1124871,"Redwater, Division No. 11, Alberta, T0A 2W0, Canada",50.090179443359375,CFU3
YEY,Rivière-Héva,48.238394,-78.21579,"Rivière-Héva, La Vallée-de-l'Or, Québec, Canada",36.28147506713867,CYEY
YTM,Rivière-Matawin,46.8027622,-73.7400629,"Rivière Matawin, Québec, Canada",90.68714904785156,CYFJ
YJN,Rougemont,45.447366,-73.063545,"Rougemont, Rouville, Montérégie, Québec, J0L 1M0, Canada",24.044099807739258,CZBM
YQW,Ruddell,52.6032729,-107.8523401,"Ruddell, Division No. 16, Saskatchewan, Canada",32.20793914794922,CYQW
YDN,Russell (Town),50.7775948,-101.2829474,"Russell, Division No. 16, Manitoba, Canada",93.43750762939453,CYDN
YQB,Saint-Agapit,46.562873,-71.435165,"Saint-Agapit, Lotbinière (MRC), Chaudière-Appalaches, Québec, G0S 1Z0, Canada",25.577892303466797,CYQB
YSC,Saint-Julien,45.9938382,-71.5295643,"Saint-Julien, Les Appalaches, Chaudière-Appalaches, Québec, G0N 1B0, Canada",63.00537109375,CYSC
YUL,Saint-Lazare,45.3995886,-74.1359632,"Saint-Lazare, Vaudreuil-Soulanges, Montérégie, Québec, Canada",31.82862091064453,CYUL
YSC,Saint-Rémi-de-Tingwick,45.863955,-71.822433,"Saint-Rémi-de-Tingwick, Arthabaska, Centre-du-Québec, Québec, Canada",48.381710052490234,CYSC
YME,Sainte-Félicité,48.9010189,-67.3373897,"Sainte-Félicité, La Matanie, Bas-Saint-Laurent, Québec, G0J 2K0, Canada",9.793624877929688,CYME
YXK,Sainte-Luce-sur-Mer,48.5485017,-68.3846903,"Sainte-Luce, La Mitis, Bas-Saint-Laurent, Québec, G0K 1P0, Canada",11.384356498718262,CYXK
YZR,Sarnia,42.9743821,-82.403533,"Sarnia, Lambton County, Ontario, Canada",8.184859275817871,CYZR
MQC,Seal Cove,47.4842856,-56.0623469,"Seal Cove, Newfoundland, Newfoundland and Labrador, Canada",49.43659591674805,CCC2
YSN,Sicamous,50.8367991,-118.9826386,"Sicamous, Columbia-Shuswap Regional District, British Columbia, Canada",24.36182403564453,CZAM
YQI,Springdale,44.0500747,-66.1052748,"Springdale, Clare Municipal District, Digby County, Nova Scotia, Canada",24.85396385192871,CYQI
YFC,St. Stephen,45.192671,-67.2759889,"St. Stephen, Saint Stephen, Charlotte County, New Brunswick / Nouveau-Brunswick, E3L 1G2, Canada",22.616451263427734,CYFC
YOO,Sunderland,44.263396,-79.0662,"Sunderland, Brock, Durham Region, Golden Horseshoe, Ontario, L0C 1H0, Canada",40.26519775390625,CNF4
YSE,Sunshine Coast,49.7650789,-123.7644501,"Sunshine Coast Regional District, British Columbia, Canada",24.44886589050293,CYSE
YXR,Temiskaming Shores,47.512563,-79.675598,"Temiskaming Shores, Timiskaming District, Northeastern Ontario, Ontario, Canada",24.253332138061523,CYXR
YVO,Val d'Or,48.1023356,-77.7875715,"Val-d'Or, La Vallée-de-l'Or, Québec, Canada",5.464150905609131,CYVO
YKF,West Montrose,43.5867565,-80.4822114,"West Montrose, Woolwich, Region of Waterloo, Ontario, N0B 2V0, Canada",16.30781364440918,CYKF
WFK,Auclair,47.728702,-68.644638,"Auclair, Témiscouata, Bas-Saint-Laurent, Québec, G0L 1A0, Canada",55.22645568847656,CYES
YRQ,Batiscan,46.496029,-72.250557,"Batiscan, Les Chenaux, Mauricie, Québec, G0X 1A0, Canada",36.524932861328125,CYRQ
YQM,Beersville,46.4468456,-65.0757137,"Beersville, Weldford Parish, Kent County, New Brunswick / Nouveau-Brunswick, Canada",48.12523651123047,CYQM
YQF,Benalto,52.3100965,-114.2774695,"Benalto, Red Deer County, Alberta, Canada",29.72938346862793,CYQF
YQY,Big Pond,45.9099104,-60.5358098,"Big Pond, Cape Breton Regional Municipality, Cape Breton County, Nova Scotia, Canada",46.915863037109375,CYQY
YQB,Boischatel,46.896801,-71.135788,"Boischatel, La Côte-de-Beaupré, Capitale-Nationale, Québec, G0A 1H0, Canada",22.841567993164062,CYQB
YKZ,Bradford,44.1171265,-79.5560133,"Bradford, 300, Holland Street East, Bradford West Gwillimbury, Simcoe County, Central Ontario, Ontario, L3Z 3H2, Canada",32.015010833740234,CNA3
ZBM,Brome,45.189207,-72.5628566,"Brome, Brome-Missisquoi, Estrie, Québec, Canada",17.97319221496582,CZBM
YXE,Bruno,52.2663037,-105.5189092,"Bruno, Division No. 15, Saskatchewan, S0K 0S0, Canada",81.15704345703125,CYXE
YYT,Carbonear,47.733123,-53.2366225,"Carbonear, Newfoundland, Newfoundland and Labrador, Canada",38.46067810058594,CYYT
YYG,Cardigan,46.2328862,-62.6183137,"Cardigan, Town of Three Rivers, Kings County, Prince Edward Island, Canada",39.1709098815918,CYYG
YXD,Carvel,53.5304912,-114.2177753,"Carvel, Hamlet of Carvel, Division No. 11, Alberta, T0E 0N0, Canada",46.2656364440918,CYEG
YQX,Centreville-Wareham-Trinity,49.015356,-53.886566,"Centreville-Wareham-Trinity, Newfoundland, Newfoundland and Labrador, Canada",50.5011100769043,CYQX
YQS,Clachan,42.5799399,-81.8002045,"Clachan, West Elgin, Elgin County, Ontario, Canada",38.202693939208984,CNA2
YQI,Clare,44.14089915,-66.1219212254917,"Clare Municipal District, Digby County, Nova Scotia, Canada",35.01982879638672,CYQI
YSJ,Clifton Royal,45.4495145,-66.0023135,"Clifton Royal, Kingston Parish, Kings County, New Brunswick / Nouveau-Brunswick, E2E 1K1, Canada",17.222373962402344,CYSJ
YYT,Come By Chance,47.8459634,-53.9844362,"Come By Chance, Newfoundland, Newfoundland and Labrador, Canada",95.58345794677734,CYYT
YXC,Cranbrook,49.5107477,-115.7672772,"Cranbrook, Regional District of East Kootenay, British Columbia, Canada",11.176058769226074,CYXC
YQU,Cutbank,54.6558853,-118.6445981,"Cutbank River, Division No. 18, Alberta, Canada",60.23771286010742,CYQU
YQL,Diamond City,49.7954949,-112.8411947,"Diamond City, Division No. 2, Alberta, Canada",18.606245040893555,CYQL
YKY,Dodsland,51.8,-108.833333,"Dodsland, Division No. 13, Saskatchewan, Canada",39.52033233642578,CYKY
YUL,Dorval,45.4453082,-73.7510888,"Dorval, Agglomération de Montréal, Montréal (région administrative), Québec, Canada",2.924612045288086,CYUL
MTC,Dover Centre,42.4897811,-82.3177841,"Dover Centre, Chatham-Kent, Ontario, N0P 1L0, Canada",28.124216079711914,CRML
YRV,Eagle River,50.9309747,-118.4647179,"Eagle River, Area E (Eagle River Valley), Columbia-Shuswap Regional District, British Columbia, Canada",20.131540298461914,CYRV
YKZ,East Gwillimbury,44.078008,-79.4558241,"East Gwillimbury, 845, Green Lane East, East Gwillimbury, York Region, Golden Horseshoe, Ontario, L3Y 7K5, Canada",24.96010398864746,CNA3
YLK,Essa,44.2344356,-79.8063686586334,"Essa, Simcoe County, Central Ontario, Ontario, Canada",34.28633117675781,CYLS
YPE,Falher,55.7346878,-117.201276,"Town of Falher, Alberta, T0H 1M0, Canada",7.2828593254089355,CYPE
YQS,Fingal,42.7127488,-81.3109968,"Fingal, Southwold, Elgin County, Ontario, Canada",17.544538497924805,CYXU
YPY,Fort Chipewyan,58.7166428,-111.1500187,"Fort Chipewyan, Wood Buffalo, Alberta, T0P 1B0, Canada",5.935861587524414,CYPY
YBL,Gold River,49.7807549,-126.0473015,"Gold River, Strathcona Regional District, British Columbia, Canada",46.93283462524414,CYBL
YQY,Grand Étang,46.5474402,-61.0481376,"Grand Étang, Municipality of the County of Inverness, Inverness County, Nova Scotia, Canada",87.95708465576172,CYQY
YVB,Grande-Anse,47.8132117,-65.1783457,"Grande-Anse, New Bandon Parish, Gloucester County, New Brunswick / Nouveau-Brunswick, Canada",35.54389953613281,CYVB
YPE,Grimshaw,56.1879236,-117.608275,"Town of Grimshaw, Alberta, T0H 1W0, Canada",10.874999046325684,CYPE
YXR,Guérin,47.6536612,-79.28480069861,"Guérin, Québec, Canada",42.397953033447266,CYXR
YSC,Ham-Nord,45.903208,-71.6459751,"Ham-Nord, Arthabaska, Centre-du-Québec, Québec, G0P 1A0, Canada",51.78269577026367,CYSC
YCW,Harrison Mills,49.2534225,-121.9559223,"Harrison Mills, Area C (Sasquatch Country), Fraser Valley Regional District, British Columbia, V0M 1L0, Canada",11.255880355834961,CYXX
YYN,Herbert,50.4263165,-107.2201894,"Herbert, Division No. 7, Saskatchewan, S0H 2A0, Canada",36.59092712402344,CYYN
YKZ,Holland Landing,44.1015097,-79.4914772,"Holland Landing, East Gwillimbury, York Region, Golden Horseshoe, Ontario, L9N 1L8, Canada",28.32932472229004,CNA3
YDL,Iskut,57.838903,-129.987488,"Iskut, Area D (Iskut/Big Raven), Regional District of Kitimat-Stikine, British Columbia, V0J 1K0, Canada",64.91228485107422,CYDL
YPQ,Kawartha Lakes,44.575616,-78.8486034,"Kawartha Lakes (city), Central Ontario, Ontario, Canada",54.436214447021484,CYPQ
YRI,L'Isle-Verte,48.01519,-69.337463,"L'Isle-Verte, Rivière-du-Loup (MRC), Bas-Saint-Laurent, Québec, G0L 1K0, Canada",33.42902374267578,CYRI
PMB,La Broquerie,49.39589535,-96.5111789530446,"Rural Municipality of La Broquerie, Division No. 2, Manitoba, Canada",73.18048858642578,CKA4
YQB,Lac-Etchemin,46.398804,-70.508194,"Lac-Etchemin, Les Etchemins, Chaudière-Appalaches, Québec, G0R 1S0, Canada",80.47621154785156,CYQB
YGM,Lee River,50.31589915,-95.8392602087661,"Lee River, Rural Municipality of Lac du Bonnet, Division No. 1, Manitoba, Canada",92.0093994140625,CYGM
YQX,Lewisporte,49.246293,-55.059357,"Lewisporte, Newfoundland, Newfoundland and Labrador, A0G 3A0, Canada",49.630008697509766,CYQX
YSH,Lombardy,44.8240917,-76.0922993,"Lombardy, Rideau Lakes, Leeds and Grenville Counties, Eastern Ontario, Ontario, K0G 1L0, Canada",18.0554256439209,CRL2
YYZ,Loretto,44.0496767,-79.8901855,"Loretto, Adjala–Tosorontio, Simcoe County, Central Ontario, Ontario, L0G 1L0, Canada",46.352054595947266,CYYZ
CAR,Lower California,46.8655086,-67.762917,"Lower California, Grand Falls Parish, Victoria County, New Brunswick / Nouveau-Brunswick, E3Z 2C6, Canada",13.281210899353027,CCK3
YND,Montpellier,45.855586,-75.163651,"Montpellier, Papineau, Québec, Canada",29.362159729003906,CSZ3
YYG,Nine Mile Creek,46.147164,-63.233138,"Nine Mile Creek, Rural Municipality of Afton, Queens County, Prince Edward Island, Canada",18.071027755737305,CYYG
YDO,Notre-Dame-de-Lorette,49.0777514,-72.3575907,"Notre-Dame-de-Lorette, Maria-Chapdelaine, Saguenay–Lac-Saint-Jean, Québec, Canada",33.299625396728516,CYDO
YZX,Oakland,44.4521637,-64.3551639,"Oakland, Municipality of the District of Lunenburg, Lunenburg County, Nova Scotia, B0J 2E0, Canada",73.97588348388672,CYZX
YYZ,Orangeville,43.9193171,-80.0973754,"Orangeville, Dufferin County, Central Ontario, Ontario, Canada",46.132930755615234,CYYZ
YOW,Ottawa East,45.40851405,-75.6767330354171,"Old Ottawa East, (Old) Ottawa, Ottawa, Eastern Ontario, Ontario, Canada",6.7047648429870605,CYOW
YEN,Oungre,49.1448801,-103.8011643,"Oungre, Souris Valley No. 7, Division No. 2, Saskatchewan, Canada",61.14186477661133,CYEN
PQI,Perth-Andover,46.7384475,-67.7057484,"Perth-Andover, Andover Parish, Victoria County, New Brunswick / Nouveau-Brunswick, Canada",26.427650451660156,CCH2
YKF,Petersburg,43.4135333,-80.6051477,"Petersburg, Wilmot, Region of Waterloo, Ontario, N0B 2L0, Canada",19.031925201416016,CYKF
YQX,Peterview,49.123321,-55.336761,"Peterview, Newfoundland, Newfoundland and Labrador, Canada",59.75088119506836,CYQX
YRT,Rankin Inlet,62.8030269,-92.0868012,"ᑲᖏᕿᓂᖅ Rankin Inlet, ᑭᕙᓪᓕᖅ Kivalliq Region, ᓄᓇᕗᑦ Nunavut, Canada",1.7430893182754517,CYRT
YCH,Red Bank,46.9436911,-65.8282005,"Red Bank (Metepenagiag), Southesk Parish, Northumberland County, New Brunswick / Nouveau-Brunswick, E9E 1J1, Canada",29.624725341796875,CYCH
MQC,Rencontre East,47.6376005,-55.2126135,"Rencontre East, Newfoundland, Newfoundland and Labrador, Canada",106.61570739746094,CCC2
YCH,Renous,46.8099052,-65.798769,"Renous, Blackville Parish, Northumberland County, New Brunswick / Nouveau-Brunswick, E9E 2M2, Canada",34.48706817626953,CYCH
YSU,Rossendale,45.8079128,-63.8214991,"Rossendale, Municipality of the County of Cumberland, Cumberland County, Nova Scotia, Canada",70.3580322265625,CYQM
YZX,Round Lake,44.4975462,-65.0091935,"Round Lake, Municipality of the County of Annapolis, Annapolis County, Nova Scotia, Canada",54.624481201171875,CYZX
YRI,Saint André,47.6740589,-69.7280115,"Saint-André-de-Kamouraska, Kamouraska (MRC), Bas-Saint-Laurent, Québec, Canada",14.691733360290527,CYRI
YYZ,Saint Benedict,43.5014908,-79.8443879674937,"Saint Benedict Roman Catholic Church, 300, Milton, Halton Region, Golden Horseshoe, Ontario, L9T 2W3, Canada",26.042266845703125,CYYZ
YUL,Saint Peter and Saint Paul,45.446911,-73.7801042215734,"Saint Peter and Saint Paul Coptic Orthodox Church, Avenue de l'Eglise, Pointe-Claire, Agglomération de Montréal, Montréal (région administrative), Québec, H9S 5W3, Canada",4.041841983795166,CYUL
YQB,Saint-Benoît-Labre,46.070134,-70.791435,"Saint-Benoît-Labre, Beauce-Sartigan, Chaudière-Appalaches, Québec, Canada",92.49016571044922,CYQB
YRI,Saint-Jean-de-Dieu,48.0030719,-69.0470105,"Saint-Jean-de-Dieu, Les Basques, Bas-Saint-Laurent, Québec, Canada",48.08359146118164,CYRI
WFK,Saint-Marc-du-Lac-Long,47.39228545,-68.8785956809016,"Saint-Marc-du-Lac-Long, Témiscouata, Bas-Saint-Laurent, Québec, Canada",44.2568473815918,CYES
YTF,Saint-Nazaire,48.58543075,-71.5350421148278,"Saint-Nazaire, Lac-Saint-Jean-Est, Saguenay–Lac-Saint-Jean, Québec, G0W 2V0, Canada",11.588374137878418,CYTF
YSL,Saint-Quentin,47.5129555,-67.3906756,"Saint-Quentin, Saint Quentin Parish, Restigouche County, New Brunswick / Nouveau-Brunswick, E8A 1H5, Canada",51.786224365234375,CYSL
YRQ,Saint-Zéphirin-de-Courval,46.0588454,-72.6259541,"Saint-Zéphirin-de-Courval, Nicolet-Yamaska, Centre-du-Québec, Québec, Canada",32.9438591003418,CYRQ
YQB,Sainte-Anne-de-Beaupré,47.0260796,-70.9253362,"Sainte-Anne-de-Beaupré, La Côte-de-Beaupré, Capitale-Nationale, Québec, G0A 3C0, Canada",44.118167877197266,CYQB
YME,Sainte-Anne-des-Monts,49.1263278,-66.4849502,"Sainte-Anne-des-Monts, La Haute-Gaspésie, Gaspésie–Îles-de-la-Madeleine, Québec, Canada",76.74217987060547,CYME
YQB,Sainte-Brigitte-de-Laval,47.0025,-71.194496,"Sainte-Brigitte-de-Laval, La Jacques-Cartier, Capitale-Nationale, Québec, G0A 3K0, Canada",25.88186264038086,CYQB
YHU,Sainte-Marie-Salomé,45.931811,-73.497505,"Sainte-Marie-Salomé, Montcalm, Lanaudière, Québec, J0K 2Z0, Canada",46.492095947265625,CSY3
CXH,Saturna,49.27997335,-122.977143624799,"5983, Saturna, Burnaby, Metro Vancouver Regional District, British Columbia, Canada",9.840096473693848,CYXX
YHZ,Seaforth,44.6724025,-63.2624061,"Seaforth, Halifax Regional Municipality, Halifax County, Nova Scotia, Canada",30.24226188659668,CYHZ
ZNA,Sechelt,49.4721147,-123.763124,"Sechelt, Sunshine Coast Regional District, British Columbia, Canada",3.4358925819396973,CAP3
YQR,Semans,51.4059425,-104.7303424,"Semans, Division No. 10, Saskatchewan, S0A 3S0, Canada",108.402587890625,CYQR
YQI,Shelburne,43.7101248,-65.3683422,"Shelburne County, Nova Scotia, Canada",59.23566818237305,CYQI
YYJ,Sidney,48.6505788,-123.3983246,"Sidney, Capital Regional District, British Columbia, Canada",2.0740554332733154,CYYJ
YXD,Smoky Lake,54.1136641,-112.4714095,"Town of Smoky Lake, Alberta, T0A 3C0, Canada",72.48722839355469,CFU3
ZJN,Swan River (Town),52.1050567,-101.27054,"Swan River, Division No. 20, Manitoba, Canada",2.924163341522217,CZJN
YQL,Taber,49.8895343,-112.0488074,"Municipal District of Taber, Alberta, Canada",61.17573547363281,CYQL
YQL,Taber (Municipal District),49.8895343,-112.0488074,"Municipal District of Taber, Alberta, Canada",61.17573547363281,CYQL
YYD,Tachie,54.6535475,-124.7589058,"Tachie, Area C (Stuart Lake/Omineca Valley), Regional District of Bulkley-Nechako, British Columbia, Canada",82.88715362548828,CYYD
YGK,Tamworth,44.4870643,-76.9945132,"Tamworth, Stone Mills, Lennox and Addington County, Eastern Ontario, Ontario, K0K 3G0, Canada",42.971397399902344,CYGK
YYG,Trenton,45.6140166,-62.6331223,"Trenton, Pictou County, Nova Scotia, Canada",84.10162353515625,CYYG
YFC,Upper Stoneridge,46.0928456,-66.9697965,"Upper Stoneridge Road, Douglas Parish, York County / Comté d'York, New Brunswick / Nouveau-Brunswick, E6L 2J8, Canada",41.68216323852539,CYFC
ZBM,Valcourt,45.4937347,-72.3151116,"Valcourt (ville), Le Val-Saint-François, Estrie, Québec, J0E 2L0, Canada",40.21514892578125,CZBM
YQL,Vauxhall,50.067952,-112.108590276133,"Town of Vauxhall, Alberta, T0K 2K0, Canada",69.46745300292969,CYQL
YDN,Wasagaming,50.6578384,-99.9718797,"Wasagaming, Unorganized Division No. 17, Division No. 17, Manitoba, R0J 1N0, Canada",49.574825286865234,CYDN
YYC,Water Valley,51.5038925,-114.6109373,"Water Valley, Mountain View County, Alberta, T0M 2E0, Canada",59.73096466064453,CYYC
YLW,West Kelowna,49.8585784,-119.582876,"West Kelowna, Westbank First Nation #9, Regional District of Central Okanagan, British Columbia, Canada",18.244258880615234,CYLW
YQR,Wolseley,50.4226733,-103.266383,"Wolseley, Division No. 5, Saskatchewan, S0G 5H0, Canada",99.14937591552734,CYQR
YQZ,Alexandria,52.633333,-122.45,"Alexandria, Area A (Red Bluff/Quesnel South), Cariboo Regional District, British Columbia, Canada",43.859413146972656,CYQZ
YRQ,Aston-Jonction,46.170796,-72.227898,"Aston-Jonction, Nicolet-Yamaska, Centre-du-Québec, Québec, Canada",40.17857360839844,CYRQ
YMW,Aumond,46.4687516,-75.8938535,"Aumond, La Vallée-de-la-Gatineau, Québec, Canada",23.018451690673828,CYMW
YPJ,Aupaluk,59.3020798,-69.6040982,"ᐊᐅᐸᓗᒃ (ᒐᕙᒪᖃᕐᕕᐅᔪᖅ) / Aupaluk (village), ᑲᑎᕕᒃ Kativik, Nord-du-Québec, Québec, Canada",0.6482545137405396,CYLA
YBC,Baie Comeau,49.2118373,-68.1801406,"Baie-Comeau, Manicouagan, Côte-Nord, Québec, Canada",8.99649429321289,CYBC
YVO,Barraute,48.4371572,-77.6382217,"Barraute, Abitibi, Québec, Canada",44.00528335571289,CYVO
CXH,Belcarra,49.3137023,-122.914882,"Belcarra, Metro Vancouver Regional District, British Columbia, V3H 4R2, Canada",14.380459785461426,CYXX
YFC,Belyeas Cove,45.7176218,-66.0123241,"Belyeas Cove, Wickham Parish, Queens County, New Brunswick / Nouveau-Brunswick, Canada",43.1301155090332,CYFC
YTA,Birds Creek,45.1077223,-77.8800427,"Birds Creek, Hastings Highlands, Hastings County, Central Ontario, Ontario, Canada",65.44088745117188,CYTA
YBX,Blanc-Sablon,51.4121624,-57.2018488,"Blanc-Sablon, Le Golfe-du-Saint-Laurent, Côte-Nord, Québec, Canada",3.679166555404663,CYBX
YQY,Boularderie Centre,46.2021008,-60.5092806,"Boularderie Centre, Municipality of Victoria County, Victoria County, Nova Scotia, Canada",35.81587600708008,CYQY
YGB,Bowser,49.4401483,-124.6886524,"Bowser, Area H (Lighthouse Country), Regional District of Nanaimo, British Columbia, V0R 1G0, Canada",21.924224853515625,CYGB
YQY,Bras D'or,46.2532497,-60.2894257,"Bras d'Or, Cape Breton Regional Municipality, Cape Breton County, Nova Scotia, Canada",21.214202880859375,CYQY
YYN,Cabri,50.6187301,-108.4611856,"Cabri, Division No. 8, Saskatchewan, S0N 0J0, Canada",65.52638244628906,CYYN
ZJN,Camperville,51.9934643,-100.1528179,"Camperville, Unorganized Division No. 19, Division No. 19, Manitoba, Canada",75.39501953125,CZJN
YHU,Candiac,45.3867947,-73.5163824,"Candiac, Roussillon, Montérégie, Québec, Canada",16.475854873657227,CYUL
YRO,Cantley,45.566468,-75.782318,"Cantley, Les Collines-de-l'Outaouais, Outaouais, Québec, Canada",15.775144577026367,CYOW
YMT,Chapais,49.7829998,-74.8572812,"Chapais, ᐄᔨᔨᐤ ᐊᔅᒌ ᒉᐃᒥᔅ ᐯᐃ Eeyou Istchee Baie-James, Jamésie, Nord-du-Québec, Québec, G0W 1H0, Canada",23.669151306152344,CYMT
YQI,Clam Point,43.4917137,-65.5734613,"Clam Point, Municipality of the District of Barrington, Shelburne County, Nova Scotia, B0W 1P0, Canada",55.70508575439453,CYQI
YPQ,Coe Hill,44.8620123,-77.8353088,"Coe Hill, Wollaston, Hastings County, Central Ontario, Ontario, K0L 1P0, Canada",81.78913116455078,CYPQ
YDG,Comeauville,44.2852358,-66.1301114,"Comeauville, Clare Municipal District, Digby County, Nova Scotia, B0W 2Z0, Canada",39.8651008605957,CYID
YYG,Cormac,46.4070602,-63.0888806,"Cormac Crescent, Stanhope, Rural Municipality of North Shore, Queens County, Prince Edward Island, Canada",13.249274253845215,CYYG
YCC,Dalkeith,45.4457714,-74.572264,"Dalkeith, North Glengarry, Stormont, Dundas and Glengarry Counties, Eastern Ontario, Ontario, Canada",39.25493240356445,CYCC
YYG,Dalvay by the Sea,46.4146956,-63.0733239864542,"Dalvay-by-the-Sea, Cottage Crescent, Stanhope, Rural Municipality of North Shore, Queens County, Prince Edward Island, Canada",14.34211540222168,CYYG
YYG,DeSable,46.1974859,-63.41407,"Desable, Queens County, Prince Edward Island, Canada",24.767234802246094,CYYG
YHZ,Debert,45.4377281,-63.4585527,"Debert, Municipality of Colchester, Colchester County, Nova Scotia, Canada",62.052040100097656,CYHZ
YRQ,Drummondville,45.8864303,-72.5018764,"Drummondville, Drummond, Centre-du-Québec, Québec, Canada",53.63248062133789,CYRQ
YHM,Dunnville,42.9059168,-79.6188457,"Dunnville, Haldimand County, Ontario, N1A 1R3, Canada",39.32069778442383,CYHM
YTZ,ENOCH,43.6528457,-79.3616271149024,"Enoch Turner Schoolhouse Museum, 106, Trinity Street, Trefann Court, Toronto Centre, Old Toronto, Toronto, Golden Horseshoe, Ontario, M5A 3C6, Canada",3.960367441177368,CYTZ
YQG,Emeryville,42.2976601,-82.7613582,"Emeryville, Lakeshore, Essex County, Ontario, N0R 1C0, Canada",16.165414810180664,CYQG
MQC,English Harbour West,47.45819045,-55.4940944632406,"English Harbour West, St. Jacques - Coomb's Cove, Newfoundland, Newfoundland and Labrador, Canada",78.07740783691406,CCC2
YCH,Fairisle,47.2793764,-65.124429,"Fairisle, Alnwick Parish, Northumberland County, New Brunswick / Nouveau-Brunswick, E9G 1M8, Canada",38.92610168457031,CYCH
YEN,Fillmore,49.883333,-103.433333,"Fillmore, Division No. 2, Saskatchewan, S0G 1N0, Canada",82.08177185058594,CYEN
YCT,Forestburg,52.583333,-112.0664866,"Village of Forestburg, Division No. 7, Alberta, T0B 1N0, Canada",70.55828857421875,CYCT
YTA,Fort-Coulonge,45.8410825,-76.736457,"Fort-Coulonge, Québec, Canada",39.988670349121094,CYTA
YSU,French River,46.5165285,-63.519404,"French River, Queens County, Prince Edward Island, Canada",25.496849060058594,CCE2
YZX,Gaspereau,45.0679441,-64.3527607,"Gaspereau, Municipality of the County of Kings, Kings County, Nova Scotia, B4P 2R1, Canada",45.29887771606445,CYZX
YXC,Grasmere,49.1317904,-115.0847234,"Grasmere, Area B (Lake Koocanusa), Regional District of East Kootenay, British Columbia, Canada",73.38795471191406,CYXC
YUX,Hall Beach,68.7927301,-81.2439606,"ᓴᓂᕋᔭᒃ, ᕿᑭᖅᑖᓗᒃ Qikiqtaaluk Region, ᓄᓇᕗᑦ Nunavut, X0A 0K0, Canada",1.8501014709472656,CYUX
YTA,Hastings Highlands,45.23732145,-77.949820759839,"Hastings Highlands, Hastings County, Central Ontario, Ontario, Canada",54.5369873046875,CYTA
YHZ,Head of Jeddore,44.7769633,-63.071621,"Head of Jeddore, Halifax Regional Municipality, Halifax County, Nova Scotia, B0J 1P0, Canada",36.343318939208984,CYHZ
YHZ,Herring Cove,44.5712827,-63.5582713,"Herring Cove, Halifax Regional Municipality, Halifax County, Nova Scotia, Canada",34.639617919921875,CYHZ
YFC,Holtville,46.5192589,-66.4741123,"Holtville, Ludlow Parish, Northumberland County, New Brunswick / Nouveau-Brunswick, Canada",72.47952270507812,CYFC
YOW,Hull,45.4405842,-75.7326823,"Hull, Gatineau, Outaouais, Québec, Canada",7.491396427154541,CYOW
YYG,Iona,46.0981297,-62.8053169,"Iona, Rural Municipality of Belfast, Queens County, Prince Edward Island, Canada",32.341644287109375,CYYG
YFC,Island View,45.9678168,-66.7895556,"Island View, Kingsclear Parish, York County / Comté d'York, New Brunswick / Nouveau-Brunswick, E3A 7L9, Canada",22.40665054321289,CYFC
YQV,Kamsack,51.5645433,-101.8953088,"Kamsack, Division No. 9, Saskatchewan, S0A 1S0, Canada",51.53713607788086,CYQV
YAX,Kenora,54.0245941,-89.1618188,"Kenora District, Northwestern Ontario, Ontario, Canada",33.578224182128906,CKB6
YXU,Komoka,42.9452837,-81.4321521,"Komoka, Middlesex Centre, Middlesex County, Ontario, N0L 1R0, Canada",24.759878158569336,CYXU
YGP,L'Anse-au-Griffon,48.9305609,-64.2958742,"L'Anse-au-Griffon, Gaspé, La Côte-de-Gaspé, Gaspésie–Îles-de-la-Madeleine, Québec, G4X 6A6, Canada",21.835601806640625,CYGP
YMX,Lachute,45.6560478,-74.3401388,"Lachute, Argenteuil, Laurentides, Québec, Canada",23.5683536529541,CYUL
YPS,Larrys River,45.2224094,-61.3775995,"Larrys River, Guysborough District Municipality, Guysborough County, Nova Scotia, B0H 1T0, Canada",48.29668045043945,CYPD
YXR,Latulipe-et-Gaboury,47.35087305,-79.0217040735723,"Latulipe-et-Gaboury, Québec, Canada",72.99374389648438,CYXR
YHU,Lavaltrie-Station,45.9329102,-73.3804712,"Lavaltrie-Station, Saint-Paul, Joliette (MRC), Lanaudière, Québec, J5T 3L3, Canada",46.2778434753418,CSY3
YHZ,Lawrencetown,44.6516314,-63.3606144,"Lawrencetown, Halifax Regional Municipality, Halifax County, Nova Scotia, Canada",28.032718658447266,CYHZ
YXT,Laxgalts'ap,55.0326819,-129.5788474,"Laxgalts'ap, British Columbia, Canada",48.64166259765625,CYXT
YXK,Le Bic,48.372095,-68.7112149,"Le Bic, Rimouski, Rimouski-Neigette, Bas-Saint-Laurent, Québec, G0L 1B0, Canada",19.7235050201416,CYXK
YFC,Lincoln (Parish),45.82490405,-66.5955232840609,"Lincoln Parish, Sunbury County, New Brunswick / Nouveau-Brunswick, Canada",6.65885591506958,CYFC
YQY,Louisbourg,45.9234791,-59.9642959,"Louisbourg, Cape Breton Regional Municipality, Cape Breton County, Nova Scotia, Canada",27.229358673095703,CYQY
YQY,Main-à-Dieu,46.0051015,-59.8458285,"Main-à-Dieu, Cape Breton Regional Municipality, Cape Breton County, Nova Scotia, Canada",23.338775634765625,CYQY
YXD,McLaughlin,53.54799155,-113.930351134603,"McLaughlin, City of Spruce Grove, Division No. 11, Alberta, Canada",27.173254013061523,CYEG
MIB,Melita,49.2691138,-100.9904623,"Melita, Division No. 5, Manitoba, R0M 1L0, Canada",95.71351623535156,CJT5
YPS,Merigomish,45.6302715,-62.4319925,"Merigomish, Municipality of Pictou County, Pictou County, Nova Scotia, Canada",82.75736999511719,CYPD
YEN,Midale,49.3947073,-103.4113919,"Midale, Division No. 2, Saskatchewan, S0C 1S0, Canada",38.25343704223633,CYEN
YYZ,Mississauga (Peel),43.5896231,-79.6443879,"Mississauga, Peel Region, Golden Horseshoe, Ontario, Canada",9.801173210144043,CYYZ
YQR,Montmartre,50.2176095,-103.4483712,"Montmartre, Division No. 6, Saskatchewan, S0G 3M0, Canada",89.66343688964844,CYQR
YXU,Nilestown,42.9727864,-81.1105904,"Nilestown, Thames Centre, Middlesex County, Ontario, N0L 1G4, Canada",7.8221354484558105,CYXU
YQT,Nipigon,49.0155918,-88.2610663,"Nipigon Township, Thunder Bay District, Northwestern Ontario, Ontario, Canada",87.85443115234375,CYQT
YHM,Ohsweken,43.0687351,-80.1179909,"Ohsweken /  Oshwé:ken, Ontario, N3W 2B2, Canada",18.8825626373291,CYHM
YXU,Oxford,43.1227633,-80.775072,"Oxford County, Ontario, Canada",32.25812911987305,CYXU
YOO,Pickering,43.835765,-79.090576,"Pickering, Durham Region, Golden Horseshoe, Ontario, Canada",18.422277450561523,CYTZ
YSD,Pollockville,51.1074019,-111.5920173,"Pollockville, Division No. 4, Alberta, Canada",97.82154083251953,CYBP
MTC,Port Lambton,42.6567779,-82.5062582,"Port Lambton, St. Clair, Lambton County, Ontario, N0P 2B0, Canada",27.47488784790039,CRML
YXS,Prince George,53.9128645,-122.7453699,"Prince George, Regional District of Fraser-Fort George, British Columbia, Canada",5.070826053619385,CYXS
YAY,Raleigh,51.5626226,-55.7324581284964,"Raleigh, Newfoundland, Newfoundland and Labrador, A0K 4J0, Canada",30.823232650756836,CYAY
YWA,Rapides-des-Joachims,46.1984087,-77.6902356,"Rapides-des-Joachims, Pontiac, Outaouais, Québec, Canada",39.606117248535156,CYWA
YQT,Red Rock,48.9425393,-88.2592117,"Red Rock, Red Rock Township, Thunder Bay District, Northwestern Ontario, Ontario, P0T 2P0, Canada",86.04706573486328,CYQT
YYN,Riverhurst,50.9018837,-106.8691737,"Riverhurst, Division No. 7, Saskatchewan, Canada",89.2479019165039,CYYN
YQS,Rowan Mills,42.6146566,-80.5386157,"Rowan Mills, Norfolk County, Ontario, Canada",49.852264404296875,CYXU
MQC,Saint Jacques-Coomb's Cove,47.4395044,-55.6019469590459,"St. Jacques - Coomb's Cove, Newfoundland, Newfoundland and Labrador, A0H 1M0, Canada",70.08792114257812,CCC2
ZBM,Saint-Benoît-du-Lac,45.167757,-72.268753,"Saint-Benoît-du-Lac, Memphrémagog, Estrie, Québec, Canada",31.173765182495117,CZBM
YRQ,Saint-Cyrille-de-Wendover,45.933005,-72.424622,"Saint-Cyrille-de-Wendover, Drummond, Centre-du-Québec, Québec, Canada",50.63794708251953,CYRQ
YMX,Saint-Côme,46.271037,-73.771477,"Saint-Côme, Matawinie, Lanaudière, Québec, Canada",68.9410629272461,CSY4
YDO,Saint-Eugène-d'Argentenay,48.9785517,-72.2862152,"Saint-Eugène-d'Argentenay, Maria-Chapdelaine, Saguenay–Lac-Saint-Jean, Québec, Canada",23.172962188720703,CYDO
WFK,Saint-Juste-du-Lac,47.654288,-68.753815,"Saint-Juste-du-Lac, Témiscouata, Bas-Saint-Laurent, Québec, Canada",52.7301025390625,CYES
YQB,Saint-Laurent-de-l'île-d'Orléans,46.8602081,-71.0065238,"Saint-Laurent-de-l'Île-d'Orléans, L'Ïle-d'Orléans, Capitale-Nationale, Québec, G0A 3Z0, Canada",30.413694381713867,CYQB
YJN,Saint-Mathieu,45.312563,-73.518448,"Saint-Mathieu, Roussillon, Montérégie, Québec, J0L 2H0, Canada",18.67255210876465,CYUL
YSC,Saint-René,46.0103936,-70.618288,"Saint-René, Beauce-Sartigan, Chaudière-Appalaches, Québec, Canada",104.79185485839844,CYSC
YTM,Sainte-Anne-du-Lac,46.880611,-75.323982,"Sainte-Anne-du-Lac, Antoine-Labelle, Laurentides, Québec, J0W 1V0, Canada",66.85612487792969,CYFJ
YCC,Sainte-Barbe,45.163144,-74.1955876,"Sainte-Barbe, Le Haut-Saint-Laurent, Montérégie, Québec, J0S 1P0, Canada",29.88908576965332,CYCC
YHU,Sainte-Julie (Sainte-Julie),45.6354303,-73.3280292,"Bras Sainte-Julie, Sainte-Julie, Marguerite-D'Youville, Montérégie, Québec, J0L 1N0, Canada",14.825571060180664,CYUL
YKZ,Scarborough,43.7729744,-79.2576479,"Scarborough, Toronto, Golden Horseshoe, Ontario, Canada",13.405233383178711,CYTZ
YXD,Sherwood,53.5291234,-113.584063,"Sherwood, Jasper Place, Edmonton, Division No. 11, Alberta, Canada",6.373082637786865,CYEG
YXD,Sherwood Park,53.5256963,-113.296631,"Sherwood Park, Division No. 11, Alberta, Canada",15.710126876831055,CYEG
YYR,Sheshatshiu,53.51192465,-60.1388121120634,"Sheshatshiu, Labrador, Newfoundland and Labrador, Canada",28.65300178527832,CYYR
YHE,Spuzzum,49.6615052,-121.4127,"Spô’zêm / Spuzzum, Fraser Valley Regional District, British Columbia, V0K 2S1, Canada",33.1793098449707,CBB7
ZBM,Stanbridge East,45.1215058,-72.9160073,"Stanbridge East, Brome-Missisquoi, Estrie, Québec, J0J 2H0, Canada",23.26974105834961,CZBM
YXD,Stony Plain,53.5310131,-113.9998496,"Stony Plain (town), Alberta, T7Z 2L6, Canada",31.967361450195312,CYEG
YXU,Stratford,43.3700899,-80.9818016,"Stratford, Ontario, Canada",39.72346878051758,CYXU
YXD,Strathcona County,53.5762678,-113.1255397,"Strathcona County, Alberta, Canada",26.113948822021484,CFU3
YQG,Tecumseh,42.3117951,-82.8861974,"Tecumseh, Essex County, Ontario, Canada",6.984391689300537,CYQG
YXD,Thorhild,54.2507824,-113.0570669,"Thorhild County, Alberta, Canada",81.31256103515625,CFM7
YQX,Tizzard's Harbour,49.5937393,-54.8032787,"Tizzard's Harbour, Newfoundland, Newfoundland and Labrador, Canada",75.00414276123047,CYQX
YLL,Turtleford,53.3878475,-108.9581917,"Turtleford, Division No. 17, Saskatchewan, S0M 2Y0, Canada",74.5121841430664,CYLL
YHZ,Upper Rawdon,45.0680737,-63.7128109,"Upper Rawdon, East Hants District Municipality, Hants County, Nova Scotia, B0N 2N0, Canada",26.2999210357666,CYHZ
PMB,Vita,49.133613,-96.5620957,"Vita, Rural Municipality of Stuartburn, Division No. 1, Manitoba, R0A 2K0, Canada",53.84453582763672,CKA4
YQS,Walsingham,42.6768741,-80.525819,"Walsingham, Norfolk County, Ontario, Canada",48.895084381103516,CYXU
YYT,Winterton,47.9543064,-53.3291072,"Winterton, Newfoundland, Newfoundland and Labrador, Canada",57.03599548339844,CYYT
YKA,127 Mile House,50.7188131,-121.3284216,"Ashcroft Manor, Trans-Canada Highway, Spences Bridge, Area I (Blue Sky Country), Thompson-Nicola Regional District, British Columbia, V0K 2L0, Canada",6.296285629272461,CYKA
YND,Alfred,45.5579611,-74.8825971,"Alfred, Alfred and Plantagenet, Prescott and Russell Counties, Eastern Ontario, Ontario, K0B 1A0, Canada",53.19097137451172,CYCC
YHZ,Ardoise,44.9612818,-63.9434101,"Ardoise, Region of Windsor and West Hants Municipality, Hants County, Nova Scotia, B0N 3A0, Canada",35.38528823852539,CYHZ
YOW,Arnprior,45.433515,-76.3543692,"Arnprior, Renfrew County, Eastern Ontario, Ontario, Canada",54.92139434814453,CYOW
YZW,Atlin,59.5744934,-133.704318,"Atlin, Stikine Region, British Columbia, V0W 1A0, Canada",85.46451568603516,CYZW
YXD,Avonmore,53.5089828,-113.452465,"Avonmore, Edmonton, Division No. 11, Alberta, T6C 2N1, Canada",8.38995361328125,CYEG
YQR,Balcarres,50.804747,-103.5427231,"Balcarres, Division No. 6, Saskatchewan, S0G 0C0, Canada",89.4369125366211,CYQR
YDF,Bonne Bay,49.50816875,-57.8990476302808,"Bonne Bay, Norris Point, Newfoundland, Newfoundland and Labrador, Canada",49.447086334228516,CYDF
YSD,Bow Island,49.8701679,-111.3789489,"Bow Island, Division No. 1, Alberta, T0K 0G0, Canada",46.257328033447266,CEF3
YKF,Cambridge,43.3600536,-80.3123023,"Cambridge, Region of Waterloo, Ontario, Canada",12.41681957244873,CYKF
YEG,Camrose County,52.9104375,-112.7266876,"Camrose County, Alberta, T0B 3Y0, Canada",72.21497344970703,CYEG
YQM,Cap-Pelé,46.2155469,-64.2728793,"Cap-Pele, Botsford Parish, Westmorland County, New Brunswick / Nouveau-Brunswick, Canada",33.291812896728516,CYQM
YYC,Carbon,51.4859432,-113.151635,"Carbon, Alberta, T0M 0L0, Canada",57.87454605102539,CYYC
YYC,Carstairs,51.563216,-114.1000016,"Town of Carstairs, Alberta, T0M 0N0, Canada",50.26995849609375,CYYC
YCG,Castlegar,49.316171,-117.663574,"Castlegar, Regional District of Central Kootenay, British Columbia, Canada",3.173790693283081,CYCG
YHZ,Cheverie,45.1571062,-64.1720011,"Cheverie, Region of Windsor and West Hants Municipality, Hants County, Nova Scotia, B0N 1G0, Canada",60.522117614746094,CYHZ
YQV,Churchbridge,50.9000886,-101.8933019,"Churchbridge, Division No. 5, Saskatchewan, S0A 0M0, Canada",56.76089096069336,CYQV
YQL,Coaldale,49.7255,-112.6168425,"Coaldale, Division No. 2, Alberta, T1M 1K8, Canada",16.903966903686523,CYQL
YYB,Corbeil,46.2631739,-79.2930538,"Corbeil, East Ferris Township, Nipissing District, Northeastern Ontario, Ontario, P0H 1K0, Canada",14.96672248840332,CYYB
YPS,D'Escousse,45.5876563,-60.9588163,"D'Escousse, Municipality of the County of Richmond, Richmond County, Nova Scotia, B0E 1K0, Canada",32.74203109741211,CYPD
YXD,Dovercourt,53.5751216,-113.559188,"Dovercourt, Western Mature Area, Division No. 11, Alberta, Canada",2.5379796028137207,CYEG
YXR,Earlton,47.7105065,-79.8206953,"Armstrong Township, Timiskaming District, Northeastern Ontario, Ontario, P0J 1E0, Canada",2.4699528217315674,CYXR
YCH,Eel Ground,46.9670796,-65.6191992,"Eel Ground, Northesk Parish, Northumberland County, New Brunswick / Nouveau-Brunswick, E1V 4B6, Canada",13.666577339172363,CYCH
YEL,Elliot Lake,46.373464,-82.652893,"Elliot Lake, Algoma District, Northeastern Ontario, Ontario, Canada",7.437009811401367,CYEL
YGK,Erinsville,44.4821843,-77.0496381,"Erinsville, Stone Mills, Lennox and Addington County, Eastern Ontario, Ontario, K0K 2A0, Canada",45.952754974365234,CYGK
CXH,Fairview,49.2641128,-123.1268352,"Fairview, Vancouver, Metro Vancouver Regional District, British Columbia, Canada",3.558220386505127,CAP3
YSN,Falkland,50.5009226,-119.5566556,"Falkland, Area D (Falkland/Silver Creek), Columbia-Shuswap Regional District, British Columbia, V0E 1W0, Canada",30.724597930908203,CZAM
YEG,Ferintosh,52.7649092,-112.9699509,"Ferintosh, Division No. 10, Alberta, Canada",73.02961730957031,CYEG
YGG,Galiano,48.8849857,-123.3509936,"Galiano, Southern Gulf Islands Electoral Area, Capital Regional District, British Columbia, V0N 1P0, Canada",4.247399806976318,CYYJ
YYC,Gleichen,50.866694,-113.04988,"Hamlet of Gleichen, Wheatland County, Alberta, Canada",45.46238708496094,CYYC
YQX,Glovertown,48.6740048,-54.0341421,"Glovertown, Newfoundland, Newfoundland and Labrador, Canada",48.82307815551758,CYQX
YLJ,Goodsoil,54.399722,-109.226111,"Goodsoil, Division No. 17, Saskatchewan, S0M 1A0, Canada",54.92067337036133,CYLJ
YGM,Grahamdale,51.2623922,-98.354762495284,"Rural Municipality of Grahamdale, Division No. 18, Manitoba, Canada",115.82713317871094,CYGM
YWG,Grosse Isle,50.0634652,-97.4420227,"Grosse Isle, Rural Municipality of Rosser, Division No. 14, Manitoba, R0C 1G0, Canada",22.36121940612793,CYWG
YZX,Hampton,44.9033941,-65.3474783,"Hampton, Municipality of the County of Annapolis, Annapolis County, Nova Scotia, B0S 1L0, Canada",35.06473922729492,CYZX
MQC,Head of Bay D'Espoir,47.9228293,-55.7452961,"Head of Bay d'Espoir, Milltown-Head of Bay d'Espoir, Newfoundland, Newfoundland and Labrador, Canada",103.62251281738281,CCC2
YPQ,Hiawatha First Nation Indian Reserve 36,44.19153535,-78.2088164219344,"Hiawatha First Nation, Young's Point, Selwyn, Peterborough County, Central Ontario, Ontario, Canada",13.034139633178711,CYPQ
YYC,High River,50.5801916,-113.8709332,"High River, Town of High River, Alberta, T1V 1R6, Canada",55.83712387084961,CYYC
YHZ,Hilden,45.306741,-63.2931653,"Hilden, Municipality of Colchester, Colchester County, Nova Scotia, Canada",50.29121780395508,CYHZ
YMJ,Holdfast,50.9582535,-105.4215601,"Holdfast, Division No. 6, Saskatchewan, S0G 2H0, Canada",70.49468231201172,CJC2
YXU,Ilderton,43.0812001,-81.3751432,"Ilderton, Middlesex Centre, Middlesex County, Ontario, N0M 2A0, Canada",18.676530838012695,CYXU
YQR,Indian Head,50.533333,-103.666667,"Indian Head, Division No. 6, Saskatchewan, S0G 2K0, Canada",71.60096740722656,CYQR
YCN,Iroquois Falls,48.7672213,-80.6770998,"Iroquois Falls, Cochrane District, Northeastern Ontario, Ontario, Canada",44.94268798828125,CYCN
YSU,Kensington,46.4360505,-63.6378732,"Town of Kensington, Prince County, Prince Edward Island, Canada",15.006695747375488,CCE2
YSU,Kinkora,46.3227406,-63.6030984,"Kinkora, Rural Municipality of Kinkora, Prince County, Prince Edward Island, Canada",22.008665084838867,CYYG
YQA,Kinmount,44.78324,-78.652472,"Kinmount, Kawartha Lakes, Central Ontario, Ontario, K0M 2A0, Canada",55.52387619018555,CYQA
YYD,Kispiox,55.3501405,-127.6957979,"Kispiox, Area B (Suskwa/Kitwanga/Kispiox), Regional District of Kitimat-Stikine, British Columbia, V0J 1Y4, Canada",66.92235565185547,CYYD
ZBM,Knowlton,45.2191522,-72.5084881,"Knowlton, Lac-Brome, Brome-Missisquoi, Estrie, Québec, J0E 1V0, Canada",19.89617347717285,CZBM
YCL,L'Ascension-de-Patapédia,47.9349115,-67.249529,"L'Ascension-de-Patapédia, Avignon, Gaspésie–Îles-de-la-Madeleine, Québec, Canada",68.72477722167969,CYCL
YLJ,Leoville,53.633333,-107.55,"Leoville, Division No. 16, Saskatchewan, S0J 1N0, Canada",84.02410125732422,CYLJ
YQS,Long Point,42.5783996,-80.4405477,"Long Point, Norfolk County, Ontario, N0E 1M0, Canada",58.79107666015625,CYXU
YRQ,Louiseville,46.255609,-72.947502,"Louiseville, Maskinongé (MRC), Mauricie, Québec, Canada",23.258146286010742,CYRQ
YQH,Lower Post,59.924238,-128.496221,"Lower Post, Stikine Region, British Columbia, V0C 1W0, Canada",28.004384994506836,CYQH
OGS,Mallorytown,44.4775491,-75.8792729,"Mallorytown, Front of Yonge, Leeds and Grenville Counties, Eastern Ontario, Ontario, K0E 1R0, Canada",18.483966827392578,CNL3
YHU,Mascouche,45.7453521,-73.6005591,"Mascouche, Les Moulins, Lanaudière, Québec, Canada",26.98101234436035,CYUL
YEL,Mississauga (Blind River),46.1944666,-83.0102914,"Mississauga Village Road, Blind River, Algoma District, Northeastern Ontario, Ontario, Canada",38.663753509521484,CYEL
YCC,Moose Creek,45.2621096,-74.9697271,"Moose Creek, North Stormont, Stormont, Dundas and Glengarry Counties, Eastern Ontario, Ontario, K0C 1W0, Canada",37.003868103027344,CYCC
YQS,Morpeth,42.3929975,-81.8430268,"Morpeth, Chatham-Kent, Ontario, N0P 1X0, Canada",21.864835739135742,CHS3
YSU,Mount Tryon,46.2889696,-63.5847993,"Mount Tryon, Prince County, Prince Edward Island, Canada",25.470428466796875,CYYG
YYC,Nanton,50.3481989,-113.770256,"Town of Nanton, Alberta, T0L 1R0, Canada",79.54033660888672,CYYC
MSS,Newington,45.1165855,-75.0136988,"Newington, South Stormont, Stormont, Dundas and Glengarry Counties, Eastern Ontario, Ontario, Canada",24.05521011352539,CYCC
YQL,Nobleford,49.883543,-113.050003,"Nobleford, Division No. 2, Alberta, T0L 1S0, Canada",33.398765563964844,CYQL
YQS,Norfolk County,42.7971532,-80.4538365,"Norfolk County, Ontario, Canada",53.698951721191406,CYHM
YYG,North Rustico Harbour,46.44332545,-63.3039065462844,"North Rustico Harbour, Rustico, Lot 24, Queens County, Prince Edward Island, Canada",22.077314376831055,CYYG
YSJ,Norton,45.6363366,-65.6952297,"Norton, Norton Parish, Kings County, New Brunswick / Nouveau-Brunswick, Canada",38.720794677734375,CYSJ
YKZ,Oro Station,43.8747978,-79.4266122,"Richmond Hill, Major MacKenzie Drive East, Beverley Acres, Richmond Hill, York Region, Golden Horseshoe, Ontario, L4C 8T3, Canada",4.7492756843566895,CYYZ
YOW,Ottawa West,45.24694515,-75.9071944948705,"Westwind Public School, 111, Hartsmere Drive, Stittsville, Goulbourn, Ottawa, Eastern Ontario, Ontario, K2S 2G1, Canada",20.427282333374023,CYOW
YUY,Palmarolle,48.661943,-79.200439,"Palmarolle, Abitibi-Ouest, Québec, Canada",28.428190231323242,CYUY
YGP,Percé,48.5222989,-64.2136423,"Percé, Le Rocher-Percé, Gaspésie–Îles-de-la-Madeleine, Québec, Canada",34.20967483520508,CYGP
YQM,Petitcodiac,45.9324685,-65.1744404,"Petitcodiac, Salisbury Parish, Westmorland County, New Brunswick / Nouveau-Brunswick, Canada",43.18720245361328,CYQM
YPD,Port Carling,45.1163936,-79.5759748,"Port Carling, Muskoka Lakes Township, District Municipality of Muskoka, Muskoka District, Central Ontario, Ontario, P0B 1J0, Canada",25.329145431518555,CNW2
YHZ,Porter Cove,44.5192869,-64.0396636734615,"Porter Cove, Aspotogan, Chester District Municipality, Lunenburg County, Nova Scotia, B0J 1T0, Canada",58.117897033691406,CYHZ
YQB,Portneuf,46.9943379,-72.0055843,"Portneuf (MRC), Capitale-Nationale, Québec, Canada",39.5607795715332,CYQB
YEY,Preissac,48.4070147,-78.3621129,"Preissac, Abitibi, Québec, Canada",19.312517166137695,CYEY
YOW,Quyon,45.5204631,-76.2302306,"Quyon, Pontiac, Les Collines-de-l'Outaouais, Québec, J0X 2V0, Canada",46.24005889892578,CYOW
YHB,Red Earth,53.4569949,-102.8714374,"ᑳ ᒥᐦᑿᐢᑮᐘᑳᕽ Red Earth, Division No. 14, Saskatchewan, Canada",80.41547393798828,CYHB
YBX,River of Ponds,50.53393195,-57.3779892199001,"River of Ponds, Newfoundland, Newfoundland and Labrador, Canada",102.04569244384766,CYBX
YRJ,Roberval,48.514785,-72.224808,"Roberval, Le Domaine-du-Roy, Saguenay–Lac-Saint-Jean, Québec, Canada",3.0601370334625244,CYRJ
YUY,Rouyn-Noranda,48.2420524,-79.0205378,"Rouyn-Noranda, Québec, Canada",14.271453857421875,CYUY
YXU,Saint Peter's,42.9873634,-81.2502490128611,"Saint Peter's Cathedral Basilica, 196, Dufferin Avenue, London, Ontario, N6A 3E6, Canada",9.494107246398926,CYXU
YMX,Saint-Calixte,45.951627,-73.849411,"Saint-Calixte, Montcalm, Lanaudière, Québec, J0K 1Z0, Canada",33.627437591552734,CSY4
YRQ,Saint-Cuthbert,46.1502171,-73.2216781,"Saint-Cuthbert, D'Autray, Lanaudière, Québec, J0K 2C0, Canada",47.39191818237305,CYRQ
YSC,Saint-Ferdinand,46.107279,-71.573524,"Saint-Ferdinand, L'Érable, Centre-du-Québec, Québec, G0N 1N0, Canada",74.91387939453125,CYSC
YRQ,Saint-François-du-Lac,46.065132,-72.823563,"Saint-François-du-Lac, Nicolet-Yamaska, Centre-du-Québec, Québec, J0G 1X0, Canada",33.85617446899414,CYRQ
YQB,Saint-Henri-de-Lévis,46.71047445,-71.0600927215017,"Tourbière de Saint-Henri-de-Lévis, Saint-Henri, Bellechasse, Chaudière-Appalaches, Québec, Canada",26.923059463500977,CYQB
ZBM,"Saint-Ignace-de-Stanbridge, Quebec",45.171388,-72.946815,"Saint-Ignace-de-Stanbridge, Brome-Missisquoi, Estrie, Québec, J0J 1Y0, Canada",20.85786247253418,CZBM
YSC,Saint-Jacques-le-Majeur-de-Wolfestown,45.93787205,-71.4999061183892,"Saint-Jacques-le-Majeur-de-Wolfestown, Les Appalaches, Chaudière-Appalaches, Québec, Canada",57.47481155395508,CYSC
YQB,Saint-Joseph-de-Beauce,46.310181,-70.877953,"Saint-Joseph-de-Beauce, Beauce-Centre, Chaudière-Appalaches, Québec, G0S 2V0, Canada",66.42805480957031,CYQB
YHU,Saint-Simon-de-Bagot,45.7349871,-72.8723453,"Saint-Simon-de-Bagot, Saint-Simon, Les Maskoutains, Montérégie, Québec, J0H 1Y0, Canada",48.764827728271484,CSY3
YQB,Saint-Éphrem-de-Beauce,46.059891,-70.953827,"Saint-Éphrem-de-Beauce, Beauce-Sartigan, Chaudière-Appalaches, Québec, G0M 1R0, Canada",88.00775146484375,CYQB
YRQ,Sainte-Geneviève-de-Berthier,46.0889312,-73.2073668,"Sainte-Geneviève-de-Berthier, D'Autray, Lanaudière, Québec, Canada",50.10721206665039,CYRQ
YBG,Sainte-Rose-du-Nord,48.388634,-70.587845,"Sainte-Rose-du-Nord, Le Fjord-du-Saguenay, Saguenay–Lac-Saint-Jean, Québec, G0V 1T0, Canada",30.86757469177246,CYBG
YRQ,Sainte-Ursule,46.2860715,-73.0313222,"Sainte-Ursule, Maskinongé (MRC), Mauricie, Québec, Canada",28.02617645263672,CYRQ
YGK,Seeley's Bay,44.4765986,-76.2331436,"Seeley's Bay, Leeds and the Thousand Islands, Leeds and Grenville Counties, Eastern Ontario, Ontario, K0H 2N0, Canada",32.158592224121094,CYGK
YVO,Senneterre (Paroisse),48.36814095,-77.2742125190676,"Senneterre (paroisse), La Vallée-de-l'Or, Québec, Canada",51.43770980834961,CYVO
YHZ,Springville,45.4545357,-62.6236473,"Springville, Municipality of Pictou County, Pictou County, Nova Scotia, Canada",94.24955749511719,CYHZ
HUL,Stickney,46.3837089,-67.5693616,"Stickney, Peel Parish, Carleton County, New Brunswick / Nouveau-Brunswick, Canada",33.6606559753418,CCR3
YSD,Suffield,50.2192746,-111.1608664,"Suffield, Cypress County, Alberta, T0J 2N0, Canada",5.503407955169678,CYXH
YQF,Tees,52.4669886,-113.3211867,"Tees, Division No. 8, Alberta, Canada",50.18185806274414,CYQF
HUL,Temperance Vale,46.0485439,-67.2416463,"Temperance Vale, Southampton Parish, York County / Comté d'York, New Brunswick / Nouveau-Brunswick, E6G 1W2, Canada",43.25421142578125,CCF9
YOS,Thornbury,44.5618428,-80.4528539,"Thornbury, The Blue Mountains, Grey County, Ontario, N0H 2P0, Canada",30.630422592163086,CYOS
YZP,Tlell,53.583538,-131.933441,"Tlell, Area D (Graham Island), North Coast Regional District, British Columbia, Canada",37.45564651489258,CYZP
YAZ,Tofino,49.1529643,-125.9047083,"Tofino, Alberni-Clayoquot Regional District, British Columbia, V0R 2Z0, Canada",0.4464735984802246,CYAZ
YFC,Tracy,45.6735384,-66.6845417,"Tracy, Gladstone Parish, Sunbury County, New Brunswick / Nouveau-Brunswick, E5L 1B5, Canada",13.302085876464844,CYFC
YYT,Trepassey,46.7357062,-53.3656558,"Trepassey, Newfoundland, Newfoundland and Labrador, Canada",108.58080291748047,CYYT
ZBM,Upton,45.649014,-72.6935269,"Upton, Acton, Montérégie, Québec, J0H 2E0, Canada",40.00640106201172,CZBM
YUL,Villeray--Saint-Michel--Parc-Extension,45.5370059,-73.6257956,"Villeray–Saint-Michel–Parc-Extension, Montréal, Agglomération de Montréal, Montréal (région administrative), Québec, Canada",7.432553768157959,CYUL
YQH,Watson Lake,60.0624306,-128.7068037,"Watson Lake, Yukon, Y0A 1C0, Canada",8.764583587646484,CYQH
YYG,Westville,45.5615392,-62.7085523,"Westville, Town of Westville, Pictou County, Nova Scotia, B0K 2A0, Canada",87.05946350097656,CYYG
YPS,Whycocomagh,45.9740206,-61.1271652,"Whycocomagh, Municipality of the County of Inverness, Inverness County, Nova Scotia, B0E 3M0, Canada",39.92051696777344,CYPD
YOO,Ajax,43.8505287,-79.0208814,"Ajax, Durham Region, Golden Horseshoe, Ontario, Canada",12.897736549377441,CYTZ
YQY,Albert Bridge,46.0160471,-60.0597706,"Albert Bridge, Cape Breton Regional Municipality, Cape Breton County, Nova Scotia, Canada",16.188879013061523,CYQY
YYG,Alliston,46.0544878,-62.6252289119356,"Alliston, Kings County, Prince Edward Island, Canada",46.30052947998047,CYYG
YEY,Amos,48.5718519,-78.1160856,"Amos, Abitibi, Québec, Canada",9.871328353881836,CYEY
YQM,Aulac,45.8704653,-64.281406,"Aulac, Sackville Parish, Westmorland County, New Brunswick / Nouveau-Brunswick, E4L 2X2, Canada",40.79313278198242,CYQM
YPS,Aulds Cove,45.63663505,-61.434933185601,"Aulds Cove, Guysborough District Municipality, Guysborough County, Nova Scotia, Canada",5.654122352600098,CYPD
YOW,Aylmer,45.3950895,-75.8442452,"Aylmer, Gatineau, Québec, Canada",15.881253242492676,CYOW
YAG,Barwick,48.6470474,-93.9848646,"Barwick, Chapple Township, Rainy River District, Northwestern Ontario, Ontario, P0W 1A0, Canada",40.056297302246094,CYAG
YYT,Bay Roberts,47.575924,-53.2833409,"Bay Roberts, Newfoundland, Newfoundland and Labrador, A0A 1G0, Canada",40.13052749633789,CYYT
YYG,Belfast,46.0785753,-62.8783952,"Belfast, Rural Municipality of Belfast, Queens County, Prince Edward Island, Canada",30.030197143554688,CYYG
ZBF,Beresford,47.7047087,-65.7032868,"Beresford, Beresford Parish, Gloucester County, New Brunswick / Nouveau-Brunswick, Canada",8.75658130645752,CZBF
YBL,Black Creek (Comox),49.8328868,-125.1294331,"Black Creek, Area C (Puntledge/Black Creek), Comox Valley Regional District, British Columbia, V9J 1H6, Canada",16.575969696044922,CYBL
YXD,Cardiff,53.7746507,-113.595499,"Cardiff, Division No. 11, Alberta, T8R 1S1, Canada",23.007715225219727,CES4
ZFA,Carmacks,62.0887686,-136.2898984,"Carmacks, Yukon, Y0B 1C0, Canada",151.93511962890625,CZFA
YGP,Chandler,48.3491804,-64.6775915,"Chandler, Le Rocher-Percé, Gaspésie–Îles-de-la-Madeleine, Québec, Canada",49.593509674072266,CYGP
YBG,Chicoutimi,48.3370248,-71.1235261355927,"Arrondissement de Chicoutimi, Saguenay, Saguenay–Lac-Saint-Jean, Québec, Canada",9.424521446228027,CYBG
ZGF,Christina Lake,49.0403105,-118.2139796,"Christina Lake, Area C (Christina Lake), Regional District of Kootenay Boundary, British Columbia, V0H 1E0, Canada",16.059675216674805,CZGF
YQL,Coalhurst,49.7468014,-112.9275821,"Coalhurst, Division No. 2, Alberta, T0L 0V0, Canada",15.876041412353516,CYQL
YSC,Cookshire-Eaton,45.38002085,-71.6842035100551,"Cookshire-Eaton, Le Haut-Saint-François, Estrie, Québec, Canada",6.53773307800293,CYSC
YGG,Crofton,48.8608608,-123.644812,"Crofton, North Cowichan, Cowichan Valley Regional District, British Columbia, V0R 1R0, Canada",5.5869622230529785,CYYJ
YQX,Crow Head,49.675627,-54.805298,"Crow Head, Newfoundland, Newfoundland and Labrador, Canada",83.92341613769531,CYQX
YTM,Dalmas,47.071167,-73.7368011300829,"Lac Dalmas, Rivière-de-la-Savane, Mékinac, Mauricie, Québec, Canada",80.85575866699219,CYFJ
YCE,Dashwood,43.3460366,-81.6352066,"Dashwood, Bluewater, Huron County, Ontario, N0M 2T0, Canada",12.270991325378418,CYGD
YQB,Deschambault,46.6492,-71.929893,"Deschambault, Deschambault-Grondines, Portneuf (MRC), Capitale-Nationale, Québec, G0A 1S0, Canada",43.037208557128906,CYQB
YQB,Donnacona,46.676532,-71.73008,"Donnacona, Portneuf (MRC), Capitale-Nationale, Québec, Canada",28.65404510498047,CYQB
YSD,Duchess,50.7305674,-111.9055311,"Village of Duchess, Alberta, T0J 0A1, Canada",72.60935974121094,CYBP
YQW,Edam,53.1875613,-108.77243,"Edam, Division No. 17, Saskatchewan, S0M 0V0, Canada",58.44445037841797,CYQW
YQR,Edenwold,50.6347926,-104.2499525,"Edenwold, Division No. 6, Saskatchewan, Canada",37.06312942504883,CYQR
YPG,Elm Creek,49.6745872,-97.9986493,"Elm Creek, Rural Municipality of Grey, Division No. 9, Manitoba, R0G 0N0, Canada",32.184574127197266,CKD7
YYU,Fauquier,49.3101561,-82.0402338,"Fauquier, Fauquier-Strickland Township, Cochrane District, Northeastern Ontario, Ontario, Canada",33.022361755371094,CYYU
YZD,Fisherville,43.7875624,-79.459323,"Fisherville, York Centre, North York, Toronto, Golden Horseshoe, Ontario, L4J 7Z8, Canada",5.035965442657471,CYYZ
YTA,Foresters Falls,45.6777429,-76.7824983,"Foresters Falls, Whitewater Region, Renfrew County, Eastern Ontario, Ontario, K0J 1V0, Canada",41.89460372924805,CYTA
YDG,Grand Manan,44.6852981,-66.7893023765016,"Village of Grand Manan, Charlotte County, New Brunswick / Nouveau-Brunswick, Canada",80.95783996582031,CYID
YNE,Grand Rapids,53.174765,-99.269714,"Grand Rapids, Division No. 21, Manitoba, Canada",92.49378967285156,CYNE
YGZ,Grise Fiord,76.4181376,-82.7165575003664,"Grise Fiord, ᕿᑭᖅᑖᓗᒃ Qikiqtaaluk Region, ᓄᓇᕗᑦ Nunavut, X0A 0J0, Canada",5.106357574462891,CYGZ
YHT,Haines Junction,60.7527212,-137.5100384,"Haines Junction, Yukon, Canada",4.501873970031738,CYHT
YCT,Hardisty,52.6696007,-111.3093794,"Hardisty, Division No. 7, Alberta, T0B 1V0, Canada",66.75452423095703,CYCT
YGR,Havre-aux-Maisons,47.403573,-61.7959076,"Havre-aux-Maisons, Les Îles-de-la-Madeleine, Communauté maritime des Îles-de-la-Madeleine, Gaspésie–Îles-de-la-Madeleine, Québec, G4T 5G9, Canada",2.7046854496002197,CYGR
YHY,Hay River,60.8155874,-115.7866099,"Hay River, South Slave Region, Northwest Territories, Canada",2.688209295272827,CYHY
YQZ,Hixon,53.4172584,-122.5818723,"Hixon, Area E (Woodpecker/Hixon), Regional District of Fraser-Fort George, British Columbia, V0K 1S0, Canada",43.75725173950195,CYQZ
YFX,Indian Cove,52.26079785,-55.6502884639995,"Indian Cove, Labrador, Newfoundland and Labrador, Canada",12.556962013244629,CCK4
YBG,Jonquière,48.4342285,-71.2542735965741,"Arrondissement de Jonquière, Saguenay, Saguenay–Lac-Saint-Jean, Québec, Canada",22.25893783569336,CYBG
YYG,Judson,46.1894867,-63.0361856,"Judson Island, Alexandra, Queens County, Prince Edward Island, C1B 2W2, Canada",12.944786071777344,CYYG
YQB,L'Ancienne-Lorette,46.8063745,-71.3584717,"L'Ancienne-Lorette, Agglomération de Québec, Capitale-Nationale, Québec, Canada",3.1487207412719727,CYQB
YML,L'Islet,47.1037283,-70.0550253,"L'Islet (MRC), Chaudière-Appalaches, Québec, Canada",56.35962677001953,CYML
YQK,Lake of the Woods,49.3016795,-94.6696271180349,"Lake of the Woods, Rainy River District, Northwestern Ontario, Ontario, Canada",58.454742431640625,CYQK
YUL,Les Cèdres,45.3085563,-74.0581993,"Les Cèdres, Vaudreuil-Soulanges, Montérégie, Québec, Canada",30.643177032470703,CYUL
YPS,Linwood,45.6501984,-61.5742815,"Linwood, Municipality of the County of Antigonish, Antigonish County, Nova Scotia, Canada",16.041807174682617,CYPD
YLK,Lisle,44.2794834,-79.946986,"Lisle Creek, Adjala–Tosorontio, Simcoe County, Central Ontario, Ontario, L0M 1M0, Canada",38.615379333496094,CYLS
YRM,Lodgepole,53.0995652,-115.3170635,"Lodgepole, Division No. 11, Alberta, Canada",30.129512786865234,CYRM
YND,Low,45.811333,-75.952263,"Low, La Vallée-de-la-Gatineau, Québec, J0X 2C0, Canada",44.15135192871094,CYMW
YCE,Lucknow,43.961848,-81.5172512,"Lucknow, Huron-Kinloss, Bruce County, Ontario, N0G 2H0, Canada",27.578645706176758,CLK3
YEN,Macoun,49.3157074,-103.2628274,"Macoun, Division No. 2, Saskatchewan, Canada",24.52138900756836,CYEN
YBY,Mallaig,54.211944,-111.366111,"Mallaig, Division No. 12, Alberta, T0A 2K0, Canada",24.328832626342773,CYBF
YRQ,Mandeville,46.4520114,-73.3730403640147,"Mandeville, D'Autray, Lanaudière, Québec, J0K 1L0, Canada",54.31964111328125,CYRQ
YPS,Margaree Forks,46.3329379,-61.0960567,"Margaree Forks, Municipality of the County of Inverness, Inverness County, Nova Scotia, Canada",78.07562255859375,CYPD
YSC,Maricourt,45.5636228,-72.2637526,"Maricourt, Le Val-Saint-François, Estrie, Québec, Canada",46.72306823730469,CYSC
YYB,Mattawa,46.317296,-78.703308,"Mattawa, Nipissing District, Northeastern Ontario, Ontario, Canada",55.47162628173828,CYYB
HUL,McKenzie Corner,46.10052495,-67.7259346872311,"McKenzie Corner United Baptist Cemetery, Richmond Parish, Carleton County, New Brunswick / Nouveau-Brunswick, Canada",5.684642314910889,CCD3
YOS,Meaford,44.6069298,-80.5916531,"Meaford, Grey County, Ontario, Canada",19.552827835083008,CYOS
YQI,Meteghan,44.1884125,-66.1614205,"Meteghan, Clare Municipal District, Digby County, Nova Scotia, B0W 2J0, Canada",40.62384033203125,CYQI
YHM,Mohawk Meadows,43.2316309,-79.9580726,"Mohawk Meadows, Hamilton, Golden Horseshoe, Ontario, L9G 3T7, Canada",6.718423366546631,CYHM
YQF,Morrin,51.6604571,-112.7643778,"Morrin, Division No. 5, Alberta, Canada",89.7637710571289,CYQF
YSC,Nantes,45.6303741,-71.0208502,"Nantes, Le Granit, Estrie, Québec, Canada",56.414283752441406,CYSC
YCG,New Denver,49.9903309,-117.3771836,"New Denver, Regional District of Central Kootenay, British Columbia, V0G 1S0, Canada",79.31321716308594,CYCG
YYG,New Perth,46.2120822,-62.6983515,"New Perth, Town of Three Rivers, Kings County, Prince Edward Island, Canada",33.64065170288086,CYYG
YVB,Newport (Le Rocher-Percé),48.2682115,-64.7427416,"Newport, Chandler, Le Rocher-Percé, Gaspésie–Îles-de-la-Madeleine, Québec, G0C 2A0, Canada",57.550048828125,CYVB
YEG,Nisku,53.333333,-113.533333,"Nisku, Division No. 11, Alberta, T9E 0W8, Canada",4.063738822937012,CYEG
YQI,Norwood,44.0620297,-66.0266762,"Norwood, Yarmouth Municipal District, Yarmouth County, Nova Scotia, B5A 5L6, Canada",26.60363006591797,CYQI
YQB,Notre-Dame-Auxiliatrice-de-Buckland,46.6196931,-70.5455802,"Notre-Dame-Auxiliatrice-de-Buckland, Bellechasse, Chaudière-Appalaches, Québec, G0R 1G0, Canada",67.39151763916016,CYQB
YOS,Owen Sound,44.5678105,-80.9430094,"Owen Sound, Grey County, Ontario, Canada",8.722672462463379,CYOS
YYG,Pictou Landing,45.6628432,-62.6830121,"Pictou Landing, Municipality of Pictou County, Pictou County, Nova Scotia, Canada",77.51930236816406,CYYG
YSJ,Pocologan,45.1221058,-66.5841341,"Pocologan, Lepreau Parish, Charlotte County, New Brunswick / Nouveau-Brunswick, Canada",53.858665466308594,CYSJ
YGM,Powerview-Pine Falls,50.568879,-96.2082895,"Powerview-Pine Falls, Division No. 1, Manitoba, R0E 1P0, Canada",59.3022346496582,CYGM
HUL,Richmond Corner,46.1461333,-67.7012387075974,"Richmond Corner Cemetery, Richmond Parish, Carleton County, New Brunswick / Nouveau-Brunswick, Canada",7.454943656921387,CCD3
YJT,Robinsons,48.2551935,-58.7951296,"Robinsons, Newfoundland, Newfoundland and Labrador, Canada",36.881309509277344,CYJT
YPD,Rosseau,45.2566236,-79.6393619,"Rosseau, Seguin Township, Parry Sound District, Central Ontario, Ontario, P0C 1J0, Canada",14.898460388183594,CNW2
YRQ,Saint-Alexis-des-Monts,46.462694,-73.143196,"Saint-Alexis-des-Monts, Maskinongé (MRC), Mauricie, Québec, J0K 1V0, Canada",37.601043701171875,CYRQ
YUL,Saint-Chrysostome,45.1027107,-73.7599069,"Saint-Chrysostome, Le Haut-Saint-Laurent, Montérégie, Québec, J0S 1R0, Canada",33.499454498291016,CYUL
YHU,Saint-Denis-sur-Richelieu,45.7861328,-73.1571717,"Saint-Denis-sur-Richelieu, La Vallée-du-Richelieu, Montérégie, Québec, J0H 1K0, Canada",36.05268096923828,CSY3
YQB,Saint-Gabriel-de-Valcartier,46.93573,-71.468468,"Saint-Gabriel-de-Valcartier, La Jacques-Cartier, Capitale-Nationale, Québec, G0A 4S0, Canada",4.52406120300293,CYQB
YTF,Saint-Gédéon-sur-le-Lac,48.4918125,-71.7892069,"Saint-Gédéon-sur-le-Lac, Saint-Gédéon, Lac-Saint-Jean-Est, Saguenay–Lac-Saint-Jean, Québec, G0W 2P0, Canada",11.018625259399414,CYTF
YQB,Saint-Isidore-de-Laprairie,46.585058,-71.090469,"Saint-Isidore, La Nouvelle-Beauce, Chaudière-Appalaches, Québec, G0S 2S0, Canada",32.5341796875,CYQB
YQB,Saint-Just-de-Bretenières,46.567358,-70.094147,"Saint-Just-de-Bretenières, Montmagny (MRC), Chaudière-Appalaches, Québec, G0R 3H0, Canada",102.18478393554688,CYQB
