{
"KLGA": {
    "iata": "LGA",
    "lon": -73.87259674,
    "lat": 40.77719879,
    "name": "La Guardia Airport",
    "state_prov": "New York",
    "city": "New York"
},
"KDCA": {
    "iata": "DCA",
    "lon": -77.037697,
    "lat": 38.8521,
    "name": "Ronald Reagan Washington National Airport",
    "state_prov": "Washington DC",
    "city": "Washington DC"
},
"CAA8": {
    "iata": "",
    "name": "Invermere Airport",
    "city": "Invermere",
    "state_prov": "British Columbia",
    "lat": 50.5167007446,
    "lon": -116
},
"CAD4": {
    "iata": "YZZ",
    "name": "Trail Airport",
    "city": "Trail",
    "state_prov": "British Columbia",
    "lat": 49.0555992126,
    "lon": -117.60900116
},
"CAD5": {
    "iata": "",
    "name": "Merritt Airport",
    "city": "Merritt",
    "state_prov": "British Columbia",
    "lat": 50.1227989197,
    "lon": -120.7470016479
},
"CAE4": {
    "iata": "",
    "name": "Tsacha Lake Airport",
    "city": "Tsacha Lake",
    "state_prov": "British Columbia",
    "lat": 53.0167007446,
    "lon": -124.8330001831
},
"CAF4": {
    "iata": "",
    "name": "Tsuniah Lake Lodge Airport",
    "city": "Tsuniah Lake Lodge",
    "state_prov": "British Columbia",
    "lat": 51.5332984924,
    "lon": -124.1669998169
},
"CAG3": {
    "iata": "",
    "name": "Chilko Lake (Tsylos Park Lodge) Airport",
    "city": "Chilko Lake",
    "state_prov": "British Columbia",
    "lat": 51.6260986328,
    "lon": -124.141998291
},
"CAH3": {
    "iata": "",
    "name": "Courtenay Airpark",
    "city": "Courtenay",
    "state_prov": "British Columbia",
    "lat": 49.6794013977,
    "lon": -124.9820022583
},
"CAH4": {
    "iata": "",
    "name": "Valemount Airport",
    "city": "Valemount",
    "state_prov": "British Columbia",
    "lat": 52.8532981873,
    "lon": -119.3339996338
},
"CAJ2": {
    "iata": "",
    "name": "Wiley Airport",
    "city": "Eagle Plains",
    "state_prov": "Yukon",
    "lat": 66.4910964966,
    "lon": -136.5729980469
},
"CAJ3": {
    "iata": "",
    "name": "Art Sutcliffe Field",
    "city": "Creston",
    "state_prov": "British Columbia",
    "lat": 49.0368995667,
    "lon": -116.4980010986
},
"CAJ4": {
    "iata": "YAA",
    "name": "Anahim Lake Airport",
    "city": "Anahim Lake",
    "state_prov": "British Columbia",
    "lat": 52.4524993896,
    "lon": -125.3030014038
},
"CAJ7": {
    "iata": "",
    "name": "Cayley A J Flying Ranch Airport",
    "city": "Cayley",
    "state_prov": "Alberta",
    "lat": 50.4500007629,
    "lon": -113.75
},
"CAJ9": {
    "iata": "",
    "name": "Fort Ware Airport",
    "city": "Fort Ware",
    "state_prov": "British Columbia",
    "lat": 57.4272003174,
    "lon": -125.6500015259
},
"CAM4": {
    "iata": "",
    "name": "Alhambra / Ahlstrom",
    "city": "",
    "state_prov": "Alberta",
    "lat": 52.3461940388,
    "lon": -114.667525291
},
"CAM5": {
    "iata": "",
    "name": "Houston Airport",
    "city": "Houston",
    "state_prov": "British Columbia",
    "lat": 54.4392009821,
    "lon": -126.778879166
},
"CAP3": {
    "iata": "",
    "name": "Sechelt-Gibsons Airport",
    "city": "Sechelt-Gibsons",
    "state_prov": "British Columbia",
    "lat": 49.4606018066,
    "lon": -123.71900177
},
"CAP6": {
    "iata": "",
    "name": "Ingenika Airport",
    "city": "Ingenika",
    "state_prov": "British Columbia",
    "lat": 56.790599823,
    "lon": -124.8970031738
},
"CAQ4": {
    "iata": "",
    "name": "Springhouse Airpark",
    "city": "Springhouse",
    "state_prov": "British Columbia",
    "lat": 51.9556007385,
    "lon": -122.138999939
},
"CAQ5": {
    "iata": "",
    "name": "Nakusp Airport",
    "city": "Nakusp",
    "state_prov": "British Columbia",
    "lat": 50.2663993835,
    "lon": -117.81300354
},
"CAR2": {
    "iata": "",
    "name": "Crawford Bay Airport",
    "city": "Crawford Bay",
    "state_prov": "British Columbia",
    "lat": 49.6666984558,
    "lon": -116.8170013428
},
"CAS2": {
    "iata": "",
    "name": "Moose Lake (Lodge) Airport",
    "city": "Moose Lake",
    "state_prov": "British Columbia",
    "lat": 53.073299408,
    "lon": -125.408996582
},
"CAS3": {
    "iata": "",
    "name": "Barkerville Airport",
    "city": "Barkerville",
    "state_prov": "British Columbia",
    "lat": 53.0881004333,
    "lon": -121.5149993896
},
"CAT4": {
    "iata": "",
    "name": "Qualicum Beach Airport",
    "city": "Qualicum Beach",
    "state_prov": "British Columbia",
    "lat": 49.3372001648,
    "lon": -124.3939971924
},
"CAT5": {
    "iata": "",
    "name": "Port Mcneill Airport",
    "city": "Port Mcneill",
    "state_prov": "British Columbia",
    "lat": 50.5755996704,
    "lon": -127.0289993286
},
"CAU3": {
    "iata": "",
    "name": "Oliver Airport",
    "city": "Oliver",
    "state_prov": "British Columbia",
    "lat": 49.1733016968,
    "lon": -119.5510025024
},
"CAU4": {
    "iata": "",
    "name": "Vanderhoof Airport",
    "city": "Vanderhoof",
    "state_prov": "British Columbia",
    "lat": 54.0461006165,
    "lon": -124.0120010376
},
"CAV3": {
    "iata": "",
    "name": "One Hundred Mile House Airport",
    "city": "One Hundred Mile House",
    "state_prov": "British Columbia",
    "lat": 51.6425018311,
    "lon": -121.3069992065
},
"CAV4": {
    "iata": "",
    "name": "Mcbride Airport",
    "city": "Mcbride",
    "state_prov": "British Columbia",
    "lat": 53.3149986267,
    "lon": -120.1709976196
},
"CAW3": {
    "iata": "",
    "name": "Scum Lake Airport",
    "city": "Scum Lake",
    "state_prov": "British Columbia",
    "lat": 51.7999992371,
    "lon": -123.5830001831
},
"CAX2": {
    "iata": "",
    "name": "Axe Lake",
    "city": "",
    "state_prov": "Saskatchewan",
    "lat": 57.2691650391,
    "lon": -109.8475036621
},
"CAX5": {
    "iata": "",
    "name": "Likely Airport",
    "city": "Likely",
    "state_prov": "British Columbia",
    "lat": 52.6166992188,
    "lon": -121.5
},
"CAY2": {
    "iata": "",
    "name": "Gang Ranch Airport",
    "city": "Gang Ranch",
    "state_prov": "British Columbia",
    "lat": 51.551700592,
    "lon": -122.327003479
},
"CAZ5": {
    "iata": "",
    "name": "Cache Creek-Ashcroft Regional Airport",
    "city": "Cache Creek",
    "state_prov": "British Columbia",
    "lat": 50.7751091109,
    "lon": -121.321227551
},
"CBA8": {
    "iata": "",
    "name": "Beaverley Airport",
    "city": "Beaverley",
    "state_prov": "British Columbia",
    "lat": 53.8555984497,
    "lon": -122.9079971313
},
"CBA9": {
    "iata": "",
    "name": "Ospika Airport",
    "city": "Ospika",
    "state_prov": "British Columbia",
    "lat": 56.2750015259,
    "lon": -124.0520019531
},
"CBB7": {
    "iata": "",
    "name": "Tipella Airport",
    "city": "Tipella",
    "state_prov": "British Columbia",
    "lat": 49.7430992126,
    "lon": -122.1630020142
},
"CBB9": {
    "iata": "",
    "name": "Osoyoos Airport",
    "city": "Osoyoos",
    "state_prov": "British Columbia",
    "lat": 49.0372009277,
    "lon": -119.488998413
},
"CBBC": {
    "iata": "ZEL",
    "name": "Bella Bella (Campbell Island) Airport",
    "city": "Bella Bella",
    "state_prov": "British Columbia",
    "lat": 52.1850013733,
    "lon": -128.1569976807
},
"CBC2": {
    "iata": "",
    "name": "Ford Bay Airport",
    "city": "Ford Bay",
    "state_prov": "Northwest Territories",
    "lat": 66.0374984741,
    "lon": -124.7149963379
},
"CBD6": {
    "iata": "",
    "name": "Nahanni Butte Airport",
    "city": "Nahanni Butte",
    "state_prov": "Northwest Territories",
    "lat": 61.0297012329,
    "lon": -123.388999939
},
"CBE2": {
    "iata": "",
    "name": "Elko Airport",
    "city": "Elko",
    "state_prov": "British Columbia",
    "lat": 49.2832984924,
    "lon": -115.1500015259
},
"CBF9": {
    "iata": "",
    "name": "Mabel Lake Airport",
    "city": "Mabel Lake",
    "state_prov": "British Columbia",
    "lat": 50.6088981628,
    "lon": -118.7310028076
},
"CBG2": {
    "iata": "",
    "name": "Green Lake Airport",
    "city": "Green Lake",
    "state_prov": "British Columbia",
    "lat": 51.4294013977,
    "lon": -121.2099990845
},
"CBH2": {
    "iata": "",
    "name": "Helmet Airport",
    "city": "Helmet",
    "state_prov": "British Columbia",
    "lat": 59.4258003235,
    "lon": -120.797996521
},
"CBH4": {
    "iata": "",
    "name": "Prairie Creek Airport",
    "city": "Prairie Creek",
    "state_prov": "Northwest Territories",
    "lat": 61.5647010803,
    "lon": -124.8150024414
},
"CBJ4": {
    "iata": "",
    "name": "Echo Valley Airport",
    "city": "Echo Valley",
    "state_prov": "British Columbia",
    "lat": 51.2416992188,
    "lon": -121.9940032959
},
"CBK6": {
    "iata": "",
    "name": "Quesnel Lake Airport",
    "city": "Quesnel Lake",
    "state_prov": "British Columbia",
    "lat": 52.5149993896,
    "lon": -121.0449981689
},
"CBK7": {
    "iata": "",
    "name": "Mile 422 (Alaska Highway) Airport",
    "city": "Toad River",
    "state_prov": "British Columbia",
    "lat": 58.8493995667,
    "lon": -125.2399978638
},
"CBL3": {
    "iata": "",
    "name": "Gordon Field",
    "city": "Fort Nelson",
    "state_prov": "British Columbia",
    "lat": 58.8166999817,
    "lon": -122.7829971313
},
"CBL6": {
    "iata": "",
    "name": "Radium Hot Springs Airport",
    "city": "Radium Hot Springs",
    "state_prov": "British Columbia",
    "lat": 50.6333007813,
    "lon": -116.0999984741
},
"CBL9": {
    "iata": "",
    "name": "Elkin Creek Guest Ranch Airport",
    "city": "Elkin Creek",
    "state_prov": "British Columbia",
    "lat": 51.5127983093,
    "lon": -123.8040008545
},
"CBM5": {
    "iata": "",
    "name": "Telegraph Creek Airport",
    "city": "Telegraph Creek",
    "state_prov": "British Columbia",
    "lat": 57.9166984558,
    "lon": -131.1170043945
},
"CBM6": {
    "iata": "",
    "name": "Midway Airport",
    "city": "Midway",
    "state_prov": "British Columbia",
    "lat": 49.0099983215,
    "lon": -118.7900009155
},
"CBN9": {
    "iata": "",
    "name": "Tsay Keh Airport",
    "city": "Tsay Keh",
    "state_prov": "British Columbia",
    "lat": 56.9061012268,
    "lon": -124.9649963379
},
"CBQ7": {
    "iata": "",
    "name": "Kemess Creek Airport",
    "city": "Kemess Creek",
    "state_prov": "British Columbia",
    "lat": 56.9743995667,
    "lon": -126.7409973145
},
"CBQ8": {
    "iata": "",
    "name": "Woodcock Airport",
    "city": "Woodcock",
    "state_prov": "British Columbia",
    "lat": 55.0666999817,
    "lon": -128.233001709
},
"CBR2": {
    "iata": "",
    "name": "Kaslo Airport",
    "city": "Kaslo",
    "state_prov": "British Columbia",
    "lat": 49.9035987854,
    "lon": -116.9349975586
},
"CBR4": {
    "iata": "",
    "name": "Clinton / Bleibler Ranch",
    "city": "Clinton",
    "state_prov": "British Columbia",
    "lat": 51.2668021597,
    "lon": -121.685771942
},
"CBS4": {
    "iata": "",
    "name": "Mule Creek Airport",
    "city": "Mule Creek",
    "state_prov": "British Columbia",
    "lat": 59.7855987549,
    "lon": -136.5829925537
},
"CBS8": {
    "iata": "",
    "name": "Port Alberni Airport",
    "city": "Port Alberni",
    "state_prov": "British Columbia",
    "lat": 49.3218994141,
    "lon": -124.9309997559
},
"CBT3": {
    "iata": "",
    "name": "Tsetzi Lake (Pan Phillips) Airport",
    "city": "Tsetzi Lake",
    "state_prov": "British Columbia",
    "lat": 52.9719009399,
    "lon": -125.0270004272
},
"CBT6": {
    "iata": "",
    "name": "Quilchena Airport",
    "city": "Quilchena",
    "state_prov": "British Columbia",
    "lat": 50.1618895996,
    "lon": -120.507745743
},
"CBU2": {
    "iata": "",
    "name": "Eddontenajon / Iskut Village Airport",
    "city": "Eddontenajon",
    "state_prov": "British Columbia",
    "lat": 57.847994155,
    "lon": -129.983968735
},
"CBW2": {
    "iata": "",
    "name": "Kitimat Airport",
    "city": "Kitimat",
    "state_prov": "British Columbia",
    "lat": 54.163898468,
    "lon": -128.5809936523
},
"CBW3": {
    "iata": "",
    "name": "Fort Grahame Airport",
    "city": "Fort Graham",
    "state_prov": "British Columbia",
    "lat": 56.5213877877,
    "lon": -124.470291138
},
"CBW4": {
    "iata": "",
    "name": "Bob Quinn Lake Airport",
    "city": "Bob Quinn Lake",
    "state_prov": "British Columbia",
    "lat": 56.9667015076,
    "lon": -130.25
},
"CBW8": {
    "iata": "",
    "name": "Prince George (North Cariboo Air Park) Airport",
    "city": "Prince George",
    "state_prov": "British Columbia",
    "lat": 54.0080986023,
    "lon": -123.0230026245
},
"CBX5": {
    "iata": "",
    "name": "Tungsten (Cantung) Airport",
    "city": "Tungsten",
    "state_prov": "Northwest Territories",
    "lat": 61.9569015503,
    "lon": -128.2030029297
},
"CBX7": {
    "iata": "",
    "name": "Tumbler Ridge Airport",
    "city": "Tumbler Ridge",
    "state_prov": "British Columbia",
    "lat": 55.0250015259,
    "lon": -120.9349975586
},
"CBZ9": {
    "iata": "",
    "name": "Fraser Lake Airport",
    "city": "Fraser Lake",
    "state_prov": "British Columbia",
    "lat": 54.0133018494,
    "lon": -124.7679977417
},
"CCA6": {
    "iata": "YWM",
    "name": "Williams Harbour Airport",
    "city": "Williams Harbour",
    "state_prov": "Newfoundland and Labrador",
    "lat": 52.5668983459,
    "lon": -55.7846984863
},
"CCC2": {
    "iata": "",
    "name": "Winterland Airport",
    "city": "Winterland",
    "state_prov": "Newfoundland and Labrador",
    "lat": 47.1369018555,
    "lon": -55.3292007446
},
"CCD2": {
    "iata": "",
    "name": "Springdale Airport",
    "city": "Springdale",
    "state_prov": "Newfoundland and Labrador",
    "lat": 49.4789009094,
    "lon": -56.1781005859
},
"CCD3": {
    "iata": "",
    "name": "Woodstock Airport",
    "city": "Woodstock",
    "state_prov": "New Brunswick",
    "lat": 46.1522484697,
    "lon": -67.5452327728
},
"CCD4": {
    "iata": "",
    "name": "Postville Airport",
    "city": "Postville",
    "state_prov": "Newfoundland and Labrador",
    "lat": 54.9105987549,
    "lon": -59.7867012024
},
"CCE2": {
    "iata": "",
    "name": "Mount Pleasant Airport",
    "city": "Mount Pleasant",
    "state_prov": "Prince Edward Island",
    "lat": 46.5999984741,
    "lon": -64
},
"CCE3": {
    "iata": "",
    "name": "Juniper Airport",
    "city": "Juniper",
    "state_prov": "New Brunswick",
    "lat": 46.5628013611,
    "lon": -67.168296814
},
"CCE4": {
    "iata": "",
    "name": "Black Tickle Airport",
    "city": "Black Tickle",
    "state_prov": "Newfoundland and Labrador",
    "lat": 53.4693984985,
    "lon": -55.7849998474
},
"CCF9": {
    "iata": "",
    "name": "Scottsfield Airpark",
    "city": "Scottsfield",
    "state_prov": "New Brunswick",
    "lat": 45.9603004456,
    "lon": -67.0952987671
},
"CCG3": {
    "iata": "",
    "name": "Weyman Airpark",
    "city": "Burtt's Corner",
    "state_prov": "New Brunswick",
    "lat": 46.0374984741,
    "lon": -66.8589019775
},
"CCH2": {
    "iata": "",
    "name": "Upper Kent Airport",
    "city": "",
    "state_prov": "Maine",
    "lat": 46.587137287,
    "lon": -67.7195549011
},
"CCH4": {
    "iata": "",
    "name": "Charlottetown Airport",
    "city": "Charlottetown",
    "state_prov": "Newfoundland and Labrador",
    "lat": 52.7649993896,
    "lon": -56.1156005859
},
"CCI9": {
    "iata": "",
    "name": "Cortes Island (Hansen Airfield) Airport",
    "city": "Cortes Island",
    "state_prov": "British Columbia",
    "lat": 50.0203018188,
    "lon": -124.9840011597
},
"CCJ3": {
    "iata": "",
    "name": "Boston Brook Airport",
    "city": "Boston Brook",
    "state_prov": "New Brunswick",
    "lat": 47.448600769,
    "lon": -67.6247024536
},
"CCK3": {
    "iata": "",
    "name": "Grand Falls Airport",
    "city": "Grand Falls",
    "state_prov": "New Brunswick",
    "lat": 47.0750007629,
    "lon": -67.6849975586
},
"CCK4": {
    "iata": "YFX",
    "name": "St. Lewis (Fox Harbour) Airport",
    "city": "St. Lewis",
    "state_prov": "Newfoundland and Labrador",
    "lat": 52.3727989197,
    "lon": -55.6739006042
},
"CCK5": {
    "iata": "",
    "name": "Owen Sound (Cook Field)",
    "city": "Owen Sound",
    "state_prov": "Ontario",
    "lat": 44.6449639588,
    "lon": -80.7456064224
},
"CCL2": {
    "iata": "",
    "name": "Candle Lake Airpark",
    "city": "Candle Lake",
    "state_prov": "Saskatchewan",
    "lat": 53.7682991028,
    "lon": -105.3079986572
},
"CCL3": {
    "iata": "",
    "name": "Christina Lake",
    "city": "",
    "state_prov": "Alberta",
    "lat": 55.6283836075,
    "lon": -110.751113892
},
"CCM3": {
    "iata": "",
    "name": "Sevogle Airport",
    "city": "Sevogle",
    "state_prov": "New Brunswick",
    "lat": 47.1910552979,
    "lon": -66.1606140137
},
"CCM4": {
    "iata": "",
    "name": "Port Au Choix Airport",
    "city": "Port Au Choix",
    "state_prov": "Newfoundland and Labrador",
    "lat": 50.6888999939,
    "lon": -57.331401825
},
"CCN2": {
    "iata": "",
    "name": "Grand Manan Airport",
    "city": "Grand Manan",
    "state_prov": "New Brunswick",
    "lat": 44.7132987976,
    "lon": -66.7964019775
},
"CCP2": {
    "iata": "",
    "name": "Exploits Valley Botwood Airport",
    "city": "Exploits Valley",
    "state_prov": "Newfoundland and Labrador",
    "lat": 49.0559997559,
    "lon": -55.4477005005
},
"CCP3": {
    "iata": "",
    "name": "Chute-St-Philippe Airport",
    "city": "Chute-St-Philippe",
    "state_prov": "Quebec",
    "lat": 46.6610984802,
    "lon": -75.2450027466
},
"CCP4": {
    "iata": "YHA",
    "name": "Port Hope Simpson Airport",
    "city": "Port Hope Simpson",
    "state_prov": "Newfoundland and Labrador",
    "lat": 52.5280990601,
    "lon": -56.2860984802
},
"CCP6": {
    "iata": "",
    "name": "Caniapiscau Airport",
    "city": "Caniapiscau",
    "state_prov": "Quebec",
    "lat": 54.8377990723,
    "lon": -69.8927993774
},
"CCR3": {
    "iata": "",
    "name": "Florenceville Airport",
    "city": "Florenceville",
    "state_prov": "New Brunswick",
    "lat": 46.4261016846,
    "lon": -67.6280975342
},
"CCS3": {
    "iata": "",
    "name": "St. Stephen Airport",
    "city": "St. Stephen",
    "state_prov": "New Brunswick",
    "lat": 45.2075004578,
    "lon": -67.2506027222
},
"CCS4": {
    "iata": "",
    "name": "Chipman Airport",
    "city": "Chipman",
    "state_prov": "New Brunswick",
    "lat": 46.148601532,
    "lon": -65.9041976929
},
"CCS6": {
    "iata": "",
    "name": "Courtenay (Smit Field) Airport",
    "city": "Courtenay",
    "state_prov": "British Columbia",
    "lat": 49.6824989319,
    "lon": -125.1009979248
},
"CCW3": {
    "iata": "",
    "name": "Waterville / Kings County Municipal Airport",
    "city": "Waterville",
    "state_prov": "Nova Scotia",
    "lat": 45.0518989563,
    "lon": -64.6517028809
},
"CCX3": {
    "iata": "",
    "name": "Brockway Airport",
    "city": "Brockway",
    "state_prov": "New Brunswick",
    "lat": 45.5666999817,
    "lon": -67.0999984741
},
"CCY3": {
    "iata": "",
    "name": "Sussex Airport",
    "city": "Sussex",
    "state_prov": "New Brunswick",
    "lat": 45.6899986267,
    "lon": -65.5400009155
},
"CCZ2": {
    "iata": "YRG",
    "name": "Rigolet Airport",
    "city": "Rigolet",
    "state_prov": "Newfoundland and Labrador",
    "lat": 54.1796989441,
    "lon": -58.4575004578
},
"CCZ3": {
    "iata": "",
    "name": "Clarenville Airport",
    "city": "Clarenville",
    "state_prov": "Newfoundland and Labrador",
    "lat": 48.2747001648,
    "lon": -53.9239006042
},
"CCZ4": {
    "iata": "",
    "name": "Margaree Airport",
    "city": "Margaree",
    "state_prov": "Nova Scotia",
    "lat": 46.3410987854,
    "lon": -60.9796981812
},
"CCZ5": {
    "iata": "",
    "name": "Thorburn Airport",
    "city": "Thorburn",
    "state_prov": "Nova Scotia",
    "lat": 45.5606002808,
    "lon": -62.5946998596
},
"CDA4": {
    "iata": "",
    "name": "Pokemouche Airport",
    "city": "Pokemouche",
    "state_prov": "New Brunswick",
    "lat": 47.7164001465,
    "lon": -64.8824996948
},
"CDA5": {
    "iata": "",
    "name": "St. Andrews Codroy Valley Airport",
    "city": "St. Andrews",
    "state_prov": "Newfoundland and Labrador",
    "lat": 47.773601532,
    "lon": -59.3130989075
},
"CDA6": {
    "iata": "",
    "name": "Bristol Airport",
    "city": "Bristol",
    "state_prov": "New Brunswick",
    "lat": 46.459400177,
    "lon": -67.5646972656
},
"CDC3": {
    "iata": "",
    "name": "Dawson Creek (Flying L Ranch) Airport",
    "city": "Dawson Creek",
    "state_prov": "British Columbia",
    "lat": 55.8194885254,
    "lon": -120.4602813721
},
"CDC4": {
    "iata": "",
    "name": "St-Quentin Airport",
    "city": "St-Quentin",
    "state_prov": "New Brunswick",
    "lat": 47.5210990906,
    "lon": -67.4210968018
},
"CDF3": {
    "iata": "",
    "name": "Englehart (Dave's Field)",
    "city": "Englehart",
    "state_prov": "Ontario",
    "lat": 47.809722223,
    "lon": -79.8111111111
},
"CDG3": {
    "iata": "",
    "name": "Dungannon",
    "city": "",
    "state_prov": "Ontario",
    "lat": 43.836389,
    "lon": -81.606667
},
"CDH1": {
    "iata": "",
    "name": "Deerhurst Resort Airport",
    "city": "Huntsville",
    "state_prov": "Ontario",
    "lat": 45.3541984558,
    "lon": -79.1513977051
},
"CDH3": {
    "iata": "",
    "name": "Finlay Air Park",
    "city": "Finlay",
    "state_prov": "Nova Scotia",
    "lat": 43.9622001648,
    "lon": -65.9942016602
},
"CDJ4": {
    "iata": "",
    "name": "Clearwater Airport",
    "city": "Clearwater",
    "state_prov": "New Brunswick",
    "lat": 46.7132987976,
    "lon": -66.8283004761
},
"CDK2": {
    "iata": "DVK",
    "name": "Diavik Airport",
    "city": "Diavik",
    "state_prov": "Northwest Territories",
    "lat": 64.5113983154,
    "lon": -110.289001465
},
"CDO2": {
    "iata": "",
    "name": "Ostergard's Airport",
    "city": "Drumheller",
    "state_prov": "Alberta",
    "lat": 51.2943992615,
    "lon": -112.6139984131
},
"CDU6": {
    "iata": "",
    "name": "Doaktown Airport",
    "city": "Doaktown",
    "state_prov": "New Brunswick",
    "lat": 46.5525016785,
    "lon": -66.0939025879
},
"CDV2": {
    "iata": "",
    "name": "Downs Gulch Airport",
    "city": "Downs Gulch",
    "state_prov": "New Brunswick",
    "lat": 47.7536010742,
    "lon": -67.4261016846
},
"CDW2": {
    "iata": "",
    "name": "Baddeck (Crown Jewel) Airport",
    "city": "Baddeck",
    "state_prov": "Nova Scotia",
    "lat": 46.1650009155,
    "lon": -60.7839012146
},
"CDY3": {
    "iata": "",
    "name": "Fogo Airport",
    "city": "Fogo",
    "state_prov": "Newfoundland and Labrador",
    "lat": 49.6575012207,
    "lon": -54.2374992371
},
"CDY6": {
    "iata": "",
    "name": "Bridgewater / Dayspring Airpark",
    "city": "Bridgewater",
    "state_prov": "Nova Scotia",
    "lat": 44.3819007874,
    "lon": -64.456703186
},
"CEA5": {
    "iata": "",
    "name": "Hardisty Airport",
    "city": "Hardisty",
    "state_prov": "Alberta",
    "lat": 52.646900177,
    "lon": -111.3840026855
},
"CEA6": {
    "iata": "",
    "name": "Cardston Airport",
    "city": "Cardston",
    "state_prov": "Alberta",
    "lat": 49.1624984741,
    "lon": -113.2409973145
},
"CEB3": {
    "iata": "YCK",
    "name": "Colville Lake Airport",
    "city": "Colville Lake",
    "state_prov": "Northwest Territories",
    "lat": 67.0333023071,
    "lon": -126.0830001831
},
"CEB5": {
    "iata": "",
    "name": "Fairview Airport",
    "city": "Fairview",
    "state_prov": "Alberta",
    "lat": 56.081401825,
    "lon": -118.4349975586
},
"CEC3": {
    "iata": "",
    "name": "Fox Lake Airport",
    "city": "Fox Lake",
    "state_prov": "Alberta",
    "lat": 58.4733009338,
    "lon": -114.5429992676
},
"CEC4": {
    "iata": "",
    "name": "Hinton / Jasper-Hinton Airport",
    "city": "Hinton",
    "state_prov": "Alberta",
    "lat": 53.3191986084,
    "lon": -117.752998352
},
"CED3": {
    "iata": "",
    "name": "Oyen Municipal Airport",
    "city": "Oyen",
    "state_prov": "Alberta",
    "lat": 51.3342018127,
    "lon": -110.4909973145
},
"CED4": {
    "iata": "",
    "name": "Fox Creek Airport",
    "city": "Fox Creek",
    "state_prov": "Alberta",
    "lat": 54.3800010681,
    "lon": -116.7659988403
},
"CED5": {
    "iata": "",
    "name": "Taber Airport",
    "city": "Taber",
    "state_prov": "Alberta",
    "lat": 49.8266983032,
    "lon": -112.1849975586
},
"CEE4": {
    "iata": "",
    "name": "Hinton / Entrance Airport",
    "city": "Hinton",
    "state_prov": "Alberta",
    "lat": 53.381401062,
    "lon": -117.700996399
},
"CEE5": {
    "iata": "",
    "name": "Wabasca Airport",
    "city": "Wabasca",
    "state_prov": "Alberta",
    "lat": 55.9618988037,
    "lon": -113.819000244
},
"CEE8": {
    "iata": "",
    "name": "Viking Airport",
    "city": "Viking",
    "state_prov": "Alberta",
    "lat": 53.1089685346,
    "lon": -111.864938736
},
"CEF3": {
    "iata": "",
    "name": "Bow Island Airport",
    "city": "Bow Island",
    "state_prov": "Alberta",
    "lat": 49.8833007813,
    "lon": -111.3330001831
},
"CEF6": {
    "iata": "",
    "name": "Forestburg Airport",
    "city": "Forestburg",
    "state_prov": "Alberta",
    "lat": 52.5746994019,
    "lon": -112.0839996338
},
"CEG3": {
    "iata": "",
    "name": "Lacombe Airport",
    "city": "Lacombe",
    "state_prov": "Alberta",
    "lat": 52.4883003235,
    "lon": -113.7119979858
},
"CEG4": {
    "iata": "",
    "name": "Drumheller Municipal Airport",
    "city": "Drumheller",
    "state_prov": "Alberta",
    "lat": 51.4963989258,
    "lon": -112.7490005493
},
"CEG5": {
    "iata": "",
    "name": "Chipewyan Lake Airport",
    "city": "Chipewyan Lake",
    "state_prov": "Alberta",
    "lat": 56.9524993896,
    "lon": -113.4960021973
},
"CEG8": {
    "iata": "",
    "name": "North Seal River Airport",
    "city": "North Seal River",
    "state_prov": "Manitoba",
    "lat": 58.9693984985,
    "lon": -99.9749984741
},
"CEH5": {
    "iata": "",
    "name": "Red Earth Creek Airport",
    "city": "Red Earth Creek",
    "state_prov": "Alberta",
    "lat": 56.5463981628,
    "lon": -115.2740020752
},
"CEH6": {
    "iata": "",
    "name": "Provost Airport",
    "city": "Provost",
    "state_prov": "Alberta",
    "lat": 52.3381004333,
    "lon": -110.2789993286
},
"CEJ3": {
    "iata": "",
    "name": "Stettler Airport",
    "city": "Stettler",
    "state_prov": "Alberta",
    "lat": 52.3100013733,
    "lon": -112.7539978027
},
"CEJ4": {
    "iata": "",
    "name": "Claresholm Industrial Airport",
    "city": "Claresholm",
    "state_prov": "Alberta",
    "lat": 50.004699707,
    "lon": -113.6299972534
},
"CEJ6": {
    "iata": "",
    "name": "Elk Point Airport",
    "city": "Elk Point",
    "state_prov": "Alberta",
    "lat": 53.8931007385,
    "lon": -110.7720031738
},
"CEK2": {
    "iata": "",
    "name": "Braeburn Airport",
    "city": "Braeburn",
    "state_prov": "Yukon",
    "lat": 61.4844017029,
    "lon": -135.7760009766
},
"CEK6": {
    "iata": "",
    "name": "Killam-Sedgewick Airport",
    "city": "Killam",
    "state_prov": "Alberta",
    "lat": 52.7999992371,
    "lon": -111.766998291
},
"CEL3": {
    "iata": "",
    "name": "East Linton (Kerr Field)",
    "city": "",
    "state_prov": "Ontario",
    "lat": 44.6610679784,
    "lon": -80.9440255165
},
"CEL4": {
    "iata": "",
    "name": "Hanna Airport",
    "city": "Hanna",
    "state_prov": "Alberta",
    "lat": 51.631401062,
    "lon": -111.9039993286
},
"CEL5": {
    "iata": "",
    "name": "Valleyview Airport",
    "city": "Valleyview",
    "state_prov": "Alberta",
    "lat": 55.0325012207,
    "lon": -117.2959976196
},
"CEL6": {
    "iata": "",
    "name": "Two Hills Airport",
    "city": "Two Hills",
    "state_prov": "Alberta",
    "lat": 53.7000007629,
    "lon": -111.7829971313
},
"CEL8": {
    "iata": "",
    "name": "Eleonore",
    "city": "",
    "state_prov": "Quebec",
    "lat": 52.718306623,
    "lon": -76.0798072815
},
"CEM3": {
    "iata": "YLE",
    "name": "Whati Airport",
    "city": "Whati",
    "state_prov": "Northwest Territories",
    "lat": 63.1316986084,
    "lon": -117.2460021973
},
"CEM4": {
    "iata": "",
    "name": "Innisfail Airport",
    "city": "Innisfail",
    "state_prov": "Alberta",
    "lat": 52.0786018372,
    "lon": -114.0270004272
},
"CEM5": {
    "iata": "",
    "name": "Swan Hills Airport",
    "city": "Swan Hills",
    "state_prov": "Alberta",
    "lat": 54.6707992554,
    "lon": -115.4150009155
},
"CEN2": {
    "iata": "",
    "name": "Bassano Airport",
    "city": "Bassano",
    "state_prov": "Alberta",
    "lat": 50.7999992371,
    "lon": -112.4670028687
},
"CEN3": {
    "iata": "",
    "name": "Three Hills Airport",
    "city": "Three Hills",
    "state_prov": "Alberta",
    "lat": 51.6967010498,
    "lon": -113.2089996338
},
"CEN5": {
    "iata": "",
    "name": "Cold Lake Regional Airport",
    "city": "Cold Lake",
    "state_prov": "Alberta",
    "lat": 54.4775009155,
    "lon": -110.2689971924
},
"CEN6": {
    "iata": "",
    "name": "Vauxhall Airport",
    "city": "Vauxhall",
    "state_prov": "Alberta",
    "lat": 50.0332984924,
    "lon": -112.0830001831
},
"CEP3": {
    "iata": "",
    "name": "Barrhead Airport",
    "city": "Barrhead",
    "state_prov": "Alberta",
    "lat": 54.0999984741,
    "lon": -114.4329986572
},
"CEP4": {
    "iata": "",
    "name": "Ross International Airport",
    "city": "Coutts",
    "state_prov": "Montana",
    "lat": 49,
    "lon": -111.9670028687
},
"CEP5": {
    "iata": "",
    "name": "Janvier Airport",
    "city": "Janvier",
    "state_prov": "Alberta",
    "lat": 55.9000015259,
    "lon": -110.733001709
},
"CEP6": {
    "iata": "",
    "name": "Warner Airport",
    "city": "Warner",
    "state_prov": "Alberta",
    "lat": 49.2933006287,
    "lon": -112.1890029907
},
"CEQ4": {
    "iata": "",
    "name": "Del Bonita / Whetstone International Airport",
    "city": "Del Bonita",
    "state_prov": "Montana",
    "lat": 48.9986000061,
    "lon": -112.776000977
},
"CEQ5": {
    "iata": "",
    "name": "Grande Cache Airport",
    "city": "Grande Cache",
    "state_prov": "Alberta",
    "lat": 53.9169006348,
    "lon": -118.8740005493
},
"CER2": {
    "iata": "",
    "name": "Castor Airport",
    "city": "Castor",
    "state_prov": "Alberta",
    "lat": 52.2209249248,
    "lon": -111.926887035
},
"CER3": {
    "iata": "",
    "name": "Drayton Valley Industrial Airport",
    "city": "Drayton Valley",
    "state_prov": "Alberta",
    "lat": 53.2658004761,
    "lon": -114.9599990845
},
"CES4": {
    "iata": "",
    "name": "Westlock Airport",
    "city": "Westlock",
    "state_prov": "Alberta",
    "lat": 54.14220047,
    "lon": -113.7409973145
},
"CET2": {
    "iata": "",
    "name": "Conklin (Leismer) Airport",
    "city": "Conklin",
    "state_prov": "Alberta",
    "lat": 55.6953010559,
    "lon": -111.2789993286
},
"CET4": {
    "iata": "",
    "name": "Fort Simpson Island Airport",
    "city": "Fort Simpson Island",
    "state_prov": "Northwest Territories",
    "lat": 61.8666992188,
    "lon": -121.3659973145
},
"CET9": {
    "iata": "",
    "name": "Jean Marie River Airport",
    "city": "Jean Marie River",
    "state_prov": "Northwest Territories",
    "lat": 61.5167007446,
    "lon": -120.6169967651
},
"CEU2": {
    "iata": "",
    "name": "Beaverlodge Airport",
    "city": "Beaverlodge",
    "state_prov": "Alberta",
    "lat": 55.1842002869,
    "lon": -119.4479980469
},
"CEU9": {
    "iata": "",
    "name": "Trout Lake Airport",
    "city": "Trout Lake",
    "state_prov": "Northwest Territories",
    "lat": 60.4393997192,
    "lon": -121.2369995117
},
"CEV2": {
    "iata": "",
    "name": "Edra Airport",
    "city": "Edra",
    "state_prov": "Alberta",
    "lat": 57.8499984741,
    "lon": -113.25
},
"CEV3": {
    "iata": "",
    "name": "Vegreville Airport",
    "city": "Vegreville",
    "state_prov": "Alberta",
    "lat": 53.5144004822,
    "lon": -112.0270004272
},
"CEV5": {
    "iata": "",
    "name": "Mayerthorpe Airport",
    "city": "Mayerthorpe",
    "state_prov": "Alberta",
    "lat": 53.9375,
    "lon": -115.1790008545
},
"CEV9": {
    "iata": "",
    "name": "Snare River Airport",
    "city": "Snare River",
    "state_prov": "Northwest Territories",
    "lat": 63.4333000183,
    "lon": -116.1829986572
},
"CEW3": {
    "iata": "ZSP",
    "name": "St. Paul Airport",
    "city": "St. Paul",
    "state_prov": "Alberta",
    "lat": 53.9933013916,
    "lon": -111.379997253
},
"CEW5": {
    "iata": "",
    "name": "Milk River Airport",
    "city": "Milk River",
    "state_prov": "Alberta",
    "lat": 49.1333007813,
    "lon": -112.0500030518
},
"CEX4": {
    "iata": "",
    "name": "Carmacks Airport",
    "city": "Carmacks",
    "state_prov": "Yukon",
    "lat": 62.1081008911,
    "lon": -136.1799926758
},
"CEX9": {
    "iata": "",
    "name": "Brant (Dixon Farm) Airport",
    "city": "Brant",
    "state_prov": "Alberta",
    "lat": 50.4193992615,
    "lon": -113.5410003662
},
"CEY3": {
    "iata": "",
    "name": "Fort Macleod Airport",
    "city": "Fort Macleod",
    "state_prov": "Alberta",
    "lat": 49.7000007629,
    "lon": -113.4169998169
},
"CEZ2": {
    "iata": "",
    "name": "Chapman Lake Airport",
    "city": "Chapman Lake",
    "state_prov": "Yukon",
    "lat": 64.9000015259,
    "lon": -138.266998291
},
"CEZ4": {
    "iata": "",
    "name": "Fort Vermilion Airport",
    "city": "Fort Vermilion",
    "state_prov": "Alberta",
    "lat": 58.4042015076,
    "lon": -115.9509963989
},
"CFA4": {
    "iata": "",
    "name": "Carcross Airport",
    "city": "Carcross",
    "state_prov": "Yukon",
    "lat": 60.1741981506,
    "lon": -134.6979980469
},
"CFA7": {
    "iata": "",
    "name": "Taltheilei Narrows Airport",
    "city": "Taltheilei Narrows",
    "state_prov": "Northwest Territories",
    "lat": 62.5980987549,
    "lon": -111.5429992676
},
"CFB3": {
    "iata": "",
    "name": "Hespero Airport",
    "city": "Hespero",
    "state_prov": "Alberta",
    "lat": 52.2999992371,
    "lon": -114.4639968872
},
"CFB4": {
    "iata": "",
    "name": "Trout Lake Airport",
    "city": "Trout Lake",
    "state_prov": "Alberta",
    "lat": 56.5,
    "lon": -114.5500030518
},
"CFB5": {
    "iata": "",
    "name": "Namur Lake Airport",
    "city": "Namur Lake",
    "state_prov": "Alberta",
    "lat": 57.3833007813,
    "lon": -112.8000030518
},
"CFB7": {
    "iata": "",
    "name": "Steen River Airport",
    "city": "Steen River",
    "state_prov": "Alberta",
    "lat": 59.6333007813,
    "lon": -117.1669998169
},
"CFC4": {
    "iata": "",
    "name": "Macmillan Pass Airport",
    "city": "Macmillan Pass",
    "state_prov": "Yukon",
    "lat": 63.181098938,
    "lon": -130.2019958496
},
"CFC7": {
    "iata": "",
    "name": "Rimbey Airport",
    "city": "Rimbey",
    "state_prov": "Alberta",
    "lat": 52.6819000244,
    "lon": -114.2379989624
},
"CFD4": {
    "iata": "",
    "name": "Foremost Airport",
    "city": "Foremost",
    "state_prov": "Alberta",
    "lat": 49.4831008911,
    "lon": -111.4940032959
},
"CFD5": {
    "iata": "",
    "name": "Grimshaw Airport",
    "city": "Grimshaw",
    "state_prov": "Alberta",
    "lat": 56.19611,
    "lon": -117.625278
},
"CFF2": {
    "iata": "",
    "name": "Christina Basin Airport",
    "city": "Christina Basin",
    "state_prov": "Alberta",
    "lat": 55.5900001526,
    "lon": -111.8229980469
},
"CFF3": {
    "iata": "",
    "name": "Jean Lake Airport",
    "city": "Jean Lake",
    "state_prov": "Alberta",
    "lat": 57.4832992554,
    "lon": -113.8830032349
},
"CFF4": {
    "iata": "DAS",
    "name": "Great Bear Lake Airport",
    "city": "Great Bear Lake",
    "state_prov": "Northwest Territories",
    "lat": 66.7031021118,
    "lon": -119.707000732
},
"CFG3": {
    "iata": "",
    "name": "Consort Airport",
    "city": "Consort",
    "state_prov": "Alberta",
    "lat": 52.0167007446,
    "lon": -110.75
},
"CFG4": {
    "iata": "",
    "name": "Debolt Airport",
    "city": "Debolt",
    "state_prov": "Alberta",
    "lat": 55.2332992554,
    "lon": -118.0329971313
},
"CFG5": {
    "iata": "",
    "name": "John D'Or Prairie Airport",
    "city": "John D'Or Prairie",
    "state_prov": "Alberta",
    "lat": 58.4914016724,
    "lon": -115.1380004883
},
"CFG7": {
    "iata": "",
    "name": "Steen Tower Airport",
    "city": "Steen Tower",
    "state_prov": "Alberta",
    "lat": 59.6333007813,
    "lon": -117.7829971313
},
"CFK2": {
    "iata": "",
    "name": "Bashaw Airport",
    "city": "Bashaw",
    "state_prov": "Alberta",
    "lat": 52.5574989319,
    "lon": -112.9649963379
},
"CFK3": {
    "iata": "",
    "name": "Fontas Airport",
    "city": "Fontas",
    "state_prov": "Alberta",
    "lat": 57.7999992371,
    "lon": -119.4499969482
},
"CFK4": {
    "iata": "",
    "name": "Calling Lake Airport",
    "city": "Calling Lake",
    "state_prov": "Alberta",
    "lat": 55.3166999817,
    "lon": -113.25
},
"CFK6": {
    "iata": "",
    "name": "Olds (Netook) Airport",
    "city": "Olds",
    "state_prov": "Alberta",
    "lat": 51.8499984741,
    "lon": -114.0670013428
},
"CFL2": {
    "iata": "",
    "name": "Empress McNeill Spectra Energy Airport",
    "city": "Empress",
    "state_prov": "Alberta",
    "lat": 50.6824989319,
    "lon": -110.041999817
},
"CFL9": {
    "iata": "",
    "name": "Johnson Lake Airport",
    "city": "Johnson Lake",
    "state_prov": "Alberta",
    "lat": 57.5666999817,
    "lon": -110.3170013428
},
"CFM2": {
    "iata": "",
    "name": "Birch Mountain Airport",
    "city": "Birch Mountain",
    "state_prov": "Alberta",
    "lat": 57.7000007629,
    "lon": -111.8330001831
},
"CFM4": {
    "iata": "",
    "name": "Donnelly Airport",
    "city": "Donnelly",
    "state_prov": "Alberta",
    "lat": 55.709400177,
    "lon": -117.09400177
},
"CFM5": {
    "iata": "",
    "name": "Hamburg Airport",
    "city": "Apache",
    "state_prov": "Alberta",
    "lat": 57.3552844682,
    "lon": -119.765310287
},
"CFM6": {
    "iata": "",
    "name": "Teepee Airport",
    "city": "Teepee",
    "state_prov": "Alberta",
    "lat": 56.459400177,
    "lon": -114.1190032959
},
"CFM7": {
    "iata": "",
    "name": "Boyle Airport",
    "city": "Boyle",
    "state_prov": "Alberta",
    "lat": 54.573299408,
    "lon": -112.8199996948
},
"CFM8": {
    "iata": "",
    "name": "Fort Macleod (Alcock Farm) Airport",
    "city": "Fort Macleod",
    "state_prov": "Alberta",
    "lat": 49.5833015442,
    "lon": -113.3000030518
},
"CFN5": {
    "iata": "",
    "name": "La Crete Airport",
    "city": "La Crete",
    "state_prov": "Alberta",
    "lat": 58.1728751982,
    "lon": -116.337919235
},
"CFN7": {
    "iata": "",
    "name": "Sundre Airport",
    "city": "Sundre",
    "state_prov": "Alberta",
    "lat": 51.7742004395,
    "lon": -114.6770019531
},
"CFP4": {
    "iata": "",
    "name": "Mcquesten Airport",
    "city": "Mcquesten",
    "state_prov": "Yukon",
    "lat": 63.5999984741,
    "lon": -137.5670013428
},
"CFP5": {
    "iata": "",
    "name": "Glendon Airport",
    "city": "Glendon",
    "state_prov": "Alberta",
    "lat": 54.2708015442,
    "lon": -111.0670013428
},
"CFP6": {
    "iata": "",
    "name": "La Biche River Airport",
    "city": "La Biche River",
    "state_prov": "Yukon",
    "lat": 60.1291999817,
    "lon": -124.0490036011
},
"CFP7": {
    "iata": "",
    "name": "Wainwright Field 21 Airport",
    "city": "Wainwright",
    "state_prov": "Alberta",
    "lat": 52.8306007385,
    "lon": -111.100997925
},
"CFP8": {
    "iata": "",
    "name": "Whitehorse / Cousins Airport",
    "city": "Whitehorse",
    "state_prov": "Yukon",
    "lat": 60.8117343999,
    "lon": -135.182132721
},
"CFQ3": {
    "iata": "",
    "name": "Milk River (Madge) Airport",
    "city": "Milk River",
    "state_prov": "Alberta",
    "lat": 49.1446990967,
    "lon": -112.0839996338
},
"CFQ5": {
    "iata": "",
    "name": "Silver City Airport",
    "city": "Silver City",
    "state_prov": "Yukon",
    "lat": 61.0289001465,
    "lon": -138.4080047607
},
"CFQ6": {
    "iata": "",
    "name": "Pelly Crossing Airport",
    "city": "Pelly Crossing",
    "state_prov": "Yukon",
    "lat": 62.8372001648,
    "lon": -136.5350036621
},
"CFR2": {
    "iata": "",
    "name": "Bawlf (Blackwells) Airport",
    "city": "Bawlf",
    "state_prov": "Alberta",
    "lat": 52.9000015259,
    "lon": -112.5500030518
},
"CFR5": {
    "iata": "",
    "name": "Alban Airport",
    "city": "French River",
    "state_prov": "Ontario",
    "lat": 46.0896987915,
    "lon": -80.6044006348
},
"CFR7": {
    "iata": "",
    "name": "Red Deer Forestry Airport",
    "city": "Red Deer Forestry",
    "state_prov": "Alberta",
    "lat": 51.6514015198,
    "lon": -115.2389984131
},
"CFS4": {
    "iata": "",
    "name": "Ogilvie River Airport",
    "city": "Ogilvie River",
    "state_prov": "Yukon",
    "lat": 65.6667022705,
    "lon": -138.1170043945
},
"CFS5": {
    "iata": "",
    "name": "Spirit River Airport",
    "city": "Spirit River",
    "state_prov": "Alberta",
    "lat": 55.7835998535,
    "lon": -118.8399963379
},
"CFS6": {
    "iata": "",
    "name": "Loon River Airport",
    "city": "Loon River",
    "state_prov": "Alberta",
    "lat": 57.1418991089,
    "lon": -115.0749969482
},
"CFS7": {
    "iata": "",
    "name": "Twin Creeks Airport",
    "city": "Twin Creeks",
    "state_prov": "Yukon",
    "lat": 62.6194000244,
    "lon": -131.279006958
},
"CFS8": {
    "iata": "",
    "name": "Clearwater River Airport",
    "city": "Clearwater River",
    "state_prov": "Alberta",
    "lat": 51.9880981445,
    "lon": -115.2279968262
},
"CFT3": {
    "iata": "",
    "name": "Finlayson Lake Airport",
    "city": "Finlayson Lake",
    "state_prov": "Yukon",
    "lat": 61.6913986206,
    "lon": -130.774002075
},
"CFT5": {
    "iata": "",
    "name": "Hyland Airport",
    "city": "Hyland",
    "state_prov": "Yukon",
    "lat": 61.5238990784,
    "lon": -128.2689971924
},
"CFT8": {
    "iata": "",
    "name": "Pelican Airport",
    "city": "Pelican",
    "state_prov": "Alberta",
    "lat": 56.1608009338,
    "lon": -113.4739990234
},
"CFT9": {
    "iata": "",
    "name": "Zama Lake Airport",
    "city": "Zama Lake",
    "state_prov": "Alberta",
    "lat": 59.0638999939,
    "lon": -118.8899993896
},
"CFU3": {
    "iata": "",
    "name": "Chipman Airport",
    "city": "Chipman",
    "state_prov": "Alberta",
    "lat": 53.7167015076,
    "lon": -112.6330032349
},
"CFU4": {
    "iata": "",
    "name": "Garden River Airport",
    "city": "Garden River",
    "state_prov": "Alberta",
    "lat": 58.7139015198,
    "lon": -113.8759994507
},
"CFU8": {
    "iata": "",
    "name": "Irma Airport",
    "city": "Irma",
    "state_prov": "Alberta",
    "lat": 52.9122009277,
    "lon": -111.1740036011
},
"CFV3": {
    "iata": "",
    "name": "Mobil Bistcho Airport",
    "city": "Mobil Bistcho",
    "state_prov": "Alberta",
    "lat": 59.4747326918,
    "lon": -119.006137848
},
"CFV6": {
    "iata": "",
    "name": "Margaret Lake Airport",
    "city": "Margaret Lake",
    "state_prov": "Alberta",
    "lat": 58.9458023034,
    "lon": -115.256538391
},
"CFW5": {
    "iata": "",
    "name": "Taltson River Airport",
    "city": "Taltson River",
    "state_prov": "Northwest Territories",
    "lat": 60.3833007813,
    "lon": -111.3499984741
},
"CFX3": {
    "iata": "",
    "name": "Doig Airport",
    "city": "Doig",
    "state_prov": "Alberta",
    "lat": 56.9500007629,
    "lon": -119.516998291
},
"CFX4": {
    "iata": "",
    "name": "Manning Airport",
    "city": "Manning",
    "state_prov": "Alberta",
    "lat": 56.9508018494,
    "lon": -117.6439971924
},
"CFX6": {
    "iata": "",
    "name": "Vulcan Airport",
    "city": "Vulcan",
    "state_prov": "Alberta",
    "lat": 50.4047012329,
    "lon": -113.2829971313
},
"CFY2": {
    "iata": "",
    "name": "Grist Lake Airport",
    "city": "Grist Lake",
    "state_prov": "Alberta",
    "lat": 55.4000015259,
    "lon": -110.483001709
},
"CFY5": {
    "iata": "",
    "name": "Pine Lake",
    "city": "Pine Lake",
    "state_prov": "Yukon",
    "lat": 60.103099823,
    "lon": -130.9340057373
},
"CFZ3": {
    "iata": "",
    "name": "Schlenker Airport",
    "city": "Medicine Hat",
    "state_prov": "Alberta",
    "lat": 49.9667015076,
    "lon": -110.7170028687
},
"CFZ5": {
    "iata": "",
    "name": "Sundre / Goodwins Farm Airport",
    "city": "Sundre",
    "state_prov": "Alberta",
    "lat": 51.7398057147,
    "lon": -114.662600756
},
"CGK2": {
    "iata": "",
    "name": "Gahcho Kue",
    "city": "",
    "state_prov": "Northwest Territories",
    "lat": 63.4330558777,
    "lon": -109.19972229
},
"CGL2": {
    "iata": "",
    "name": "Harrow Airport",
    "city": "Harrow",
    "state_prov": "Ontario",
    "lat": 42.0593986511,
    "lon": -82.8407974243
},
"CGL4": {
    "iata": "",
    "name": "Eaglesham (South) Airport",
    "city": "Eaglesham",
    "state_prov": "Alberta",
    "lat": 55.6711006165,
    "lon": -117.9359970093
},
"CGR3": {
    "iata": "",
    "name": "George Lake Aerodrome",
    "city": "",
    "state_prov": "Nunavut",
    "lat": 65.928056,
    "lon": -102.462222
},
"CGS2": {
    "iata": "",
    "name": "Goose Lake Aerodrome",
    "city": "",
    "state_prov": "Nunavut",
    "lat": 65.552778,
    "lon": -106.433611
},
"CHC5": {
    "iata": "",
    "name": "Hayes Camp Aerodrome",
    "city": "",
    "state_prov": "Nunavut",
    "lat": 66.655556,
    "lon": -91.545
},
"CHM2": {
    "iata": "",
    "name": "Spiritwood / H & M Fast Farms",
    "city": "",
    "state_prov": "Saskatchewan",
    "lat": 53.275,
    "lon": -107.57027778
},
"CHS3": {
    "iata": "",
    "name": "Highgate (South)",
    "city": "",
    "state_prov": "Ontario",
    "lat": 42.4736111111,
    "lon": -81.8219444444
},
"CJA3": {
    "iata": "",
    "name": "Morden Airport",
    "city": "Morden",
    "state_prov": "Manitoba",
    "lat": 49.2103004456,
    "lon": -98.0591964722
},
"CJA5": {
    "iata": "",
    "name": "Nestor Falls Airport",
    "city": "Nestor Falls",
    "state_prov": "Ontario",
    "lat": 49.1403007507,
    "lon": -93.9169006348
},
"CJA7": {
    "iata": "",
    "name": "Arcola Airport",
    "city": "Arcola",
    "state_prov": "Saskatchewan",
    "lat": 49.6333007813,
    "lon": -102.483001709
},
"CJB5": {
    "iata": "",
    "name": "Moosomin Airport",
    "city": "Moosomin",
    "state_prov": "Saskatchewan",
    "lat": 50.168598175,
    "lon": -101.6439971924
},
"CJB6": {
    "iata": "",
    "name": "Gods Lake Airport",
    "city": "Gods Lake",
    "state_prov": "Manitoba",
    "lat": 54.7792015076,
    "lon": -93.7169036865
},
"CJB8": {
    "iata": "",
    "name": "Kyle Airport",
    "city": "Kyle",
    "state_prov": "Saskatchewan",
    "lat": 50.8333015442,
    "lon": -108.0699996948
},
"CJC2": {
    "iata": "",
    "name": "Craik Airport",
    "city": "Craik",
    "state_prov": "Saskatchewan",
    "lat": 51.056098938,
    "lon": -105.8379974365
},
"CJC3": {
    "iata": "",
    "name": "Davidson Municipal Airport",
    "city": "Davidson",
    "state_prov": "Saskatchewan",
    "lat": 51.2477989197,
    "lon": -105.9759979248
},
"CJC4": {
    "iata": "",
    "name": "Central Butte Airport",
    "city": "Central Butte",
    "state_prov": "Saskatchewan",
    "lat": 50.801399231,
    "lon": -106.4879989624
},
"CJC5": {
    "iata": "",
    "name": "Shaunavon Airport",
    "city": "Shaunavon",
    "state_prov": "Saskatchewan",
    "lat": 49.6581001282,
    "lon": -108.40599823
},
"CJC6": {
    "iata": "",
    "name": "Hafford Airport",
    "city": "Hafford",
    "state_prov": "Saskatchewan",
    "lat": 52.7322006226,
    "lon": -107.3740005493
},
"CJC8": {
    "iata": "",
    "name": "Laurie River Airport",
    "city": "Laurie River",
    "state_prov": "Manitoba",
    "lat": 56.2486000061,
    "lon": -101.3040008545
},
"CJD2": {
    "iata": "",
    "name": "Cudworth Municipal Airport",
    "city": "Cudworth",
    "state_prov": "Saskatchewan",
    "lat": 52.4832992554,
    "lon": -105.7170028687
},
"CJD3": {
    "iata": "",
    "name": "Birch Hills Airport",
    "city": "Birch Hills",
    "state_prov": "Saskatchewan",
    "lat": 52.9907989502,
    "lon": -105.4449996948
},
"CJD5": {
    "iata": "",
    "name": "Leader Airport",
    "city": "Leader",
    "state_prov": "Saskatchewan",
    "lat": 50.8772010803,
    "lon": -109.5009994507
},
"CJE2": {
    "iata": "",
    "name": "Dore Lake Airport",
    "city": "Dore Lake",
    "state_prov": "Saskatchewan",
    "lat": 54.6166992188,
    "lon": -107.3830032349
},
"CJE3": {
    "iata": "",
    "name": "Weyburn Airport",
    "city": "Weyburn",
    "state_prov": "Saskatchewan",
    "lat": 49.6974983215,
    "lon": -103.8010025024
},
"CJE4": {
    "iata": "",
    "name": "Snow Lake Airport",
    "city": "Snow Lake",
    "state_prov": "Manitoba",
    "lat": 54.8972015381,
    "lon": -99.818901062
},
"CJE5": {
    "iata": "",
    "name": "Glaslyn Airport",
    "city": "Glaslyn",
    "state_prov": "Saskatchewan",
    "lat": 53.3772010803,
    "lon": -108.3420028687
},
"CJE6": {
    "iata": "",
    "name": "Paradise Hill Airport",
    "city": "Paradise Hill",
    "state_prov": "Saskatchewan",
    "lat": 53.5353012085,
    "lon": -109.4339981079
},
"CJE7": {
    "iata": "",
    "name": "Ashern Airport",
    "city": "Ashern",
    "state_prov": "Manitoba",
    "lat": 51.1585998535,
    "lon": -98.3319015503
},
"CJF3": {
    "iata": "",
    "name": "Ile-a-la-Crosse Airport",
    "city": "Ile-a-la-Crosse",
    "state_prov": "Saskatchewan",
    "lat": 55.4897003174,
    "lon": -107.9300003052
},
"CJF5": {
    "iata": "",
    "name": "West Poplar Airport",
    "city": "West Poplar",
    "state_prov": "Montana",
    "lat": 49.0031013489,
    "lon": -106.3870010376
},
"CJF8": {
    "iata": "",
    "name": "Biggar Airport",
    "city": "Biggar",
    "state_prov": "Saskatchewan",
    "lat": 52.0511016846,
    "lon": -107.9879989624
},
"CJG2": {
    "iata": "",
    "name": "Eatonia (Elvie Smith) Municipal Airport",
    "city": "Eatonia",
    "state_prov": "Saskatchewan",
    "lat": 51.2188987732,
    "lon": -109.3929977417
},
"CJG4": {
    "iata": "",
    "name": "Wrong Lake Airport",
    "city": "",
    "state_prov": "Manitoba",
    "lat": 52.6154522074,
    "lon": -96.184015274
},
"CJH2": {
    "iata": "",
    "name": "Gilbert Plains Airport",
    "city": "Gilbert Plains",
    "state_prov": "Manitoba",
    "lat": 51.1333007813,
    "lon": -100.5
},
"CJH3": {
    "iata": "",
    "name": "Maidstone Airport",
    "city": "Maidstone",
    "state_prov": "Saskatchewan",
    "lat": 53.0943984985,
    "lon": -109.3249969482
},
"CJH4": {
    "iata": "",
    "name": "Ferland Airport",
    "city": "Ferland",
    "state_prov": "Saskatchewan",
    "lat": 49.4449996948,
    "lon": -106.9319992065
},
"CJH8": {
    "iata": "",
    "name": "Leask Airport",
    "city": "Leask",
    "state_prov": "Saskatchewan",
    "lat": 53.0167007446,
    "lon": -106.75
},
"CJJ2": {
    "iata": "",
    "name": "Glenboro Airport",
    "city": "Glenboro",
    "state_prov": "Manitoba",
    "lat": 49.5499992371,
    "lon": -99.3332977295
},
"CJJ3": {
    "iata": "",
    "name": "Wildwood / Loche Mist Farms Airstrip",
    "city": "",
    "state_prov": "Alberta",
    "lat": 53.546529605,
    "lon": -115.260658264
},
"CJJ4": {
    "iata": "",
    "name": "Deloraine Airport",
    "city": "Deloraine",
    "state_prov": "Manitoba",
    "lat": 49.1506004333,
    "lon": -100.5009994507
},
"CJJ5": {
    "iata": "",
    "name": "Cabri Airport",
    "city": "Cabri",
    "state_prov": "Saskatchewan",
    "lat": 50.6194000244,
    "lon": -108.466003418
},
"CJJ8": {
    "iata": "",
    "name": "Macklin Airport",
    "city": "Macklin",
    "state_prov": "Saskatchewan",
    "lat": 52.3428001404,
    "lon": -109.9189987183
},
"CJK2": {
    "iata": "",
    "name": "Gunisao Lake Airport",
    "city": "Gunisao Lake",
    "state_prov": "Manitoba",
    "lat": 53.5200004578,
    "lon": -96.3711013794
},
"CJK3": {
    "iata": "",
    "name": "Beauval Airport",
    "city": "Beauval",
    "state_prov": "Saskatchewan",
    "lat": 55.1102981567,
    "lon": -107.716003418
},
"CJK4": {
    "iata": "",
    "name": "Esterhazy Airport",
    "city": "Esterhazy",
    "state_prov": "Saskatchewan",
    "lat": 50.6427993774,
    "lon": -102.0999984741
},
"CJK5": {
    "iata": "",
    "name": "Gull Lake Airport",
    "city": "Gull Lake",
    "state_prov": "Saskatchewan",
    "lat": 50.057800293,
    "lon": -108.4899978638
},
"CJK9": {
    "iata": "",
    "name": "Preeceville Airport",
    "city": "Preeceville",
    "state_prov": "Saskatchewan",
    "lat": 51.9500007629,
    "lon": -102.6500015259
},
"CJL2": {
    "iata": "",
    "name": "Hatchet Lake Airport",
    "city": "Hatchet Lake",
    "state_prov": "Saskatchewan",
    "lat": 58.6624984741,
    "lon": -103.5380020142
},
"CJL4": {
    "iata": "",
    "name": "La Loche Airport",
    "city": "La Loche",
    "state_prov": "Saskatchewan",
    "lat": 56.4733009338,
    "lon": -109.4039993286
},
"CJL6": {
    "iata": "",
    "name": "Altona Municipal Airport",
    "city": "Altona",
    "state_prov": "Manitoba",
    "lat": 49.0943984985,
    "lon": -97.5338973999
},
"CJL8": {
    "iata": "",
    "name": "Kasba Lake Airport",
    "city": "Kasba Lake",
    "state_prov": "Northwest Territories",
    "lat": 60.2919006348,
    "lon": -102.5019989014
},
"CJM2": {
    "iata": "",
    "name": "Ituna Airport",
    "city": "Ituna",
    "state_prov": "Saskatchewan",
    "lat": 51.1460990906,
    "lon": -103.4260025024
},
"CJM4": {
    "iata": "",
    "name": "Gravelbourg Airport",
    "city": "Gravelbourg",
    "state_prov": "Saskatchewan",
    "lat": 49.8662071228,
    "lon": -106.5710754395
},
"CJM5": {
    "iata": "",
    "name": "Frontier Airport",
    "city": "Frontier",
    "state_prov": "Saskatchewan",
    "lat": 49.1666984558,
    "lon": -108.5670013428
},
"CJM6": {
    "iata": "",
    "name": "Arborfield Airport",
    "city": "Arborfield",
    "state_prov": "Saskatchewan",
    "lat": 53.10779953,
    "lon": -103.6510009766
},
"CJN2": {
    "iata": "",
    "name": "Kamsack Airport",
    "city": "Kamsack",
    "state_prov": "Saskatchewan",
    "lat": 51.5597000122,
    "lon": -101.8789978027
},
"CJN4": {
    "iata": "",
    "name": "Assiniboia Airport",
    "city": "Assiniboia",
    "state_prov": "Saskatchewan",
    "lat": 49.7346992493,
    "lon": -105.9469985962
},
"CJP2": {
    "iata": "",
    "name": "Kerrobert Airport",
    "city": "Kerrobert",
    "state_prov": "Saskatchewan",
    "lat": 51.9268989563,
    "lon": -109.1289978027
},
"CJP6": {
    "iata": "",
    "name": "Camsell Portage Airport",
    "city": "Camsell Portage",
    "state_prov": "Saskatchewan",
    "lat": 59.6100006104,
    "lon": -109.266998291
},
"CJP7": {
    "iata": "",
    "name": "Bird River (Lac Du Bonnet) Airport",
    "city": "Bird River",
    "state_prov": "Manitoba",
    "lat": 50.3967018127,
    "lon": -95.7350006104
},
"CJP9": {
    "iata": "",
    "name": "Charlot River Airport",
    "city": "Charlot River",
    "state_prov": "Saskatchewan",
    "lat": 59.6016998291,
    "lon": -109.1370010376
},
"CJQ2": {
    "iata": "",
    "name": "Lampman Airport",
    "city": "Lampman",
    "state_prov": "Saskatchewan",
    "lat": 49.3666992188,
    "lon": -102.766998291
},
"CJQ3": {
    "iata": "",
    "name": "Carlyle Airport",
    "city": "Carlyle",
    "state_prov": "Saskatchewan",
    "lat": 49.6444015503,
    "lon": -102.2870025635
},
"CJQ4": {
    "iata": "",
    "name": "Maple Creek Airport",
    "city": "Maple Creek",
    "state_prov": "Saskatchewan",
    "lat": 49.8958015442,
    "lon": -109.4749984741
},
"CJQ5": {
    "iata": "",
    "name": "Arnes Airport",
    "city": "Arnes",
    "state_prov": "Manitoba",
    "lat": 50.836101532,
    "lon": -96.9571990967
},
"CJQ6": {
    "iata": "",
    "name": "Tanquary Fiord Airport",
    "city": "Tanquary Fiord",
    "state_prov": "Nunavut",
    "lat": 81.4094009399,
    "lon": -76.8816986084
},
"CJQ9": {
    "iata": "",
    "name": "Big Sand Lake Airport",
    "city": "Big Sand Lake",
    "state_prov": "Manitoba",
    "lat": 57.6194000244,
    "lon": -99.8752975464
},
"CJR2": {
    "iata": "",
    "name": "Luseland Airport",
    "city": "Luseland",
    "state_prov": "Saskatchewan",
    "lat": 52.0699996948,
    "lon": -109.3740005493
},
"CJR3": {
    "iata": "",
    "name": "The Pas / Grace Lake Airport",
    "city": "The Pas",
    "state_prov": "Manitoba",
    "lat": 53.8264007568,
    "lon": -101.205001831
},
"CJR4": {
    "iata": "",
    "name": "Eston Airport",
    "city": "Eston",
    "state_prov": "Saskatchewan",
    "lat": 51.1441993713,
    "lon": -108.7630004883
},
"CJR5": {
    "iata": "",
    "name": "Gladstone Airport",
    "city": "Gladstone",
    "state_prov": "Manitoba",
    "lat": 50.1636009216,
    "lon": -98.9424972534
},
"CJR7": {
    "iata": "",
    "name": "Canora Airport",
    "city": "Canora",
    "state_prov": "Saskatchewan",
    "lat": 51.6288986206,
    "lon": -102.4499969482
},
"CJR8": {
    "iata": "",
    "name": "Mccreary Airport",
    "city": "Mccreary",
    "state_prov": "Manitoba",
    "lat": 50.7647018433,
    "lon": -99.4966964722
},
"CJR9": {
    "iata": "",
    "name": "Naicam Airport",
    "city": "Naicam",
    "state_prov": "Saskatchewan",
    "lat": 52.4113998413,
    "lon": -104.4840011597
},
"CJS2": {
    "iata": "",
    "name": "Malcolm Island Airport",
    "city": "Malcolm Island",
    "state_prov": "Saskatchewan",
    "lat": 56.9494018555,
    "lon": -102.2389984131
},
"CJS3": {
    "iata": "",
    "name": "Cluff Lake Airport",
    "city": "Cluff Lake",
    "state_prov": "Saskatchewan",
    "lat": 58.3911018372,
    "lon": -109.5159988403
},
"CJS5": {
    "iata": "",
    "name": "Killarney Municipal Airport",
    "city": "Killarney",
    "state_prov": "Manitoba",
    "lat": 49.1516990662,
    "lon": -99.6902999878
},
"CJT2": {
    "iata": "",
    "name": "Matheson Island Airport",
    "city": "Matheson Island",
    "state_prov": "Manitoba",
    "lat": 51.7322006226,
    "lon": -96.9344024658
},
"CJT3": {
    "iata": "",
    "name": "Knee Lake Airport",
    "city": "Knee Lake",
    "state_prov": "Manitoba",
    "lat": 54.9152984619,
    "lon": -94.7981033325
},
"CJT4": {
    "iata": "",
    "name": "Cumberland House Airport",
    "city": "Cumberland House",
    "state_prov": "Saskatchewan",
    "lat": 53.9561004639,
    "lon": -102.297996521
},
"CJT5": {
    "iata": "",
    "name": "Melita Airport",
    "city": "Melita",
    "state_prov": "Manitoba",
    "lat": 49.2616996765,
    "lon": -101.013999939
},
"CJT9": {
    "iata": "",
    "name": "Leoville Airport",
    "city": "Leoville",
    "state_prov": "Saskatchewan",
    "lat": 53.6206016541,
    "lon": -107.6090011597
},
"CJU3": {
    "iata": "",
    "name": "Macdonald Airport",
    "city": "Macdonald",
    "state_prov": "Manitoba",
    "lat": 50.0964012146,
    "lon": -98.5008010864
},
"CJU4": {
    "iata": "",
    "name": "Humboldt Airport",
    "city": "Humboldt",
    "state_prov": "Saskatchewan",
    "lat": 52.1761016846,
    "lon": -105.1269989014
},
"CJU5": {
    "iata": "",
    "name": "Minnedosa Airport",
    "city": "Minnedosa",
    "state_prov": "Manitoba",
    "lat": 50.271900177,
    "lon": -99.7630996704
},
"CJU6": {
    "iata": "",
    "name": "Arborg Airport",
    "city": "Arborg",
    "state_prov": "Manitoba",
    "lat": 50.9127998352,
    "lon": -97.304397583
},
"CJU7": {
    "iata": "",
    "name": "Edam Airport",
    "city": "Edam",
    "state_prov": "Saskatchewan",
    "lat": 53.1850013733,
    "lon": -108.7890014648
},
"CJV2": {
    "iata": "",
    "name": "Neilburg Airport",
    "city": "Neilburg",
    "state_prov": "Saskatchewan",
    "lat": 52.831401825,
    "lon": -109.6399993896
},
"CJV4": {
    "iata": "",
    "name": "Otter Lake Airport",
    "city": "Otter Lake",
    "state_prov": "Saskatchewan",
    "lat": 55.5811004639,
    "lon": -104.7850036621
},
"CJV5": {
    "iata": "",
    "name": "Neepawa Airport",
    "city": "Neepawa",
    "state_prov": "Manitoba",
    "lat": 50.23279953,
    "lon": -99.510597229
},
"CJV7": {
    "iata": "SUR",
    "name": "Summer Beaver Airport",
    "city": "Summer Beaver",
    "state_prov": "Ontario",
    "lat": 52.7085990906,
    "lon": -88.5419006348
},
"CJV8": {
    "iata": "",
    "name": "Grand Rapids Airport",
    "city": "Grand Rapids",
    "state_prov": "Manitoba",
    "lat": 53.1725006104,
    "lon": -99.323097229
},
"CJV9": {
    "iata": "",
    "name": "Melville Municipal Airport",
    "city": "Melville",
    "state_prov": "Saskatchewan",
    "lat": 50.9413986206,
    "lon": -102.7379989624
},
"CJW2": {
    "iata": "",
    "name": "Oxbow Airport",
    "city": "Oxbow",
    "state_prov": "Saskatchewan",
    "lat": 49.2332992554,
    "lon": -102.1500015259
},
"CJW3": {
    "iata": "",
    "name": "Loon Lake Airport",
    "city": "Loon Lake",
    "state_prov": "Saskatchewan",
    "lat": 54.0182991028,
    "lon": -109.1350021362
},
"CJW4": {
    "iata": "",
    "name": "Pelican Narrows Airport",
    "city": "Pelican Narrows",
    "state_prov": "Saskatchewan",
    "lat": 55.2868995667,
    "lon": -102.75
},
"CJW5": {
    "iata": "",
    "name": "Russell Airport",
    "city": "Russell",
    "state_prov": "Manitoba",
    "lat": 50.7658004761,
    "lon": -101.2949981689
},
"CJW7": {
    "iata": "",
    "name": "Cigar Lake Airport",
    "city": "Cigar Lake",
    "state_prov": "Saskatchewan",
    "lat": 58.0531005859,
    "lon": -104.4840011597
},
"CJX4": {
    "iata": "",
    "name": "Rosetown Airport",
    "city": "Rosetown",
    "state_prov": "Saskatchewan",
    "lat": 51.5643997192,
    "lon": -107.9179992676
},
"CJX5": {
    "iata": "",
    "name": "Souris Glenwood Industrial Air Park",
    "city": "Souris Glenwood",
    "state_prov": "Manitoba",
    "lat": 49.6333007813,
    "lon": -100.1999969482
},
"CJY3": {
    "iata": "",
    "name": "Tisdale Airport",
    "city": "Tisdale",
    "state_prov": "Saskatchewan",
    "lat": 52.8367004395,
    "lon": -104.0670013428
},
"CJY4": {
    "iata": "",
    "name": "Sandy Bay Airport",
    "city": "Sandy Bay",
    "state_prov": "Saskatchewan",
    "lat": 55.5456008911,
    "lon": -102.2720031738
},
"CJY5": {
    "iata": "",
    "name": "Strathclair Airport",
    "city": "Strathclair",
    "state_prov": "Manitoba",
    "lat": 50.3960990906,
    "lon": -100.4250030518
},
"CJZ2": {
    "iata": "",
    "name": "Portage La Prairie (North) Airport",
    "city": "Portage La Prairie",
    "state_prov": "Manitoba",
    "lat": 49.9925003052,
    "lon": -98.3031005859
},
"CJZ3": {
    "iata": "",
    "name": "Melfort Airport",
    "city": "Melfort",
    "state_prov": "Saskatchewan",
    "lat": 52.8666992188,
    "lon": -104.6999969482
},
"CJZ4": {
    "iata": "",
    "name": "Shellbrook Airport",
    "city": "Shellbrook",
    "state_prov": "Saskatchewan",
    "lat": 53.2282981873,
    "lon": -106.3629989624
},
"CKA4": {
    "iata": "",
    "name": "Zhoda Airport",
    "city": "Zhoda",
    "state_prov": "Manitoba",
    "lat": 49.2807998657,
    "lon": -96.5010986328
},
"CKA9": {
    "iata": "",
    "name": "Southend Airport",
    "city": "Southend",
    "state_prov": "Saskatchewan",
    "lat": 56.3372001648,
    "lon": -103.2929992676
},
"CKB2": {
    "iata": "",
    "name": "Patuanak Airport",
    "city": "Patuanak",
    "state_prov": "Saskatchewan",
    "lat": 55.9000015259,
    "lon": -107.7210006714
},
"CKB6": {
    "iata": "YAX",
    "name": "Wapekeka Airport",
    "city": "Angling Lake",
    "state_prov": "Ontario",
    "lat": 53.8492012024,
    "lon": -89.5793991089
},
"CKB7": {
    "iata": "",
    "name": "Roblin Airport",
    "city": "Roblin",
    "state_prov": "Manitoba",
    "lat": 51.2344017029,
    "lon": -101.3929977417
},
"CKB8": {
    "iata": "",
    "name": "Silver Falls Airport",
    "city": "Silver Falls",
    "state_prov": "Manitoba",
    "lat": 50.5,
    "lon": -96.0980987549
},
"CKC6": {
    "iata": "",
    "name": "Lanigan Airport",
    "city": "Lanigan",
    "state_prov": "Saskatchewan",
    "lat": 51.8452987671,
    "lon": -104.9919967651
},
"CKC7": {
    "iata": "",
    "name": "Rockglen Airport",
    "city": "Rockglen",
    "state_prov": "Saskatchewan",
    "lat": 49.1666984558,
    "lon": -105.9329986572
},
"CKC8": {
    "iata": "",
    "name": "Somerset Airport",
    "city": "Somerset",
    "state_prov": "Manitoba",
    "lat": 49.4002990723,
    "lon": -98.6924972534
},
"CKC9": {
    "iata": "",
    "name": "Pangman Airport",
    "city": "Pangman",
    "state_prov": "Saskatchewan",
    "lat": 49.6464004517,
    "lon": -104.6660003662
},
"CKD2": {
    "iata": "",
    "name": "Porcupine Plain Airport",
    "city": "Porcupine Plain",
    "state_prov": "Saskatchewan",
    "lat": 52.6197013855,
    "lon": -103.2480010986
},
"CKD5": {
    "iata": "",
    "name": "Kipling Airport",
    "city": "Kipling",
    "state_prov": "Saskatchewan",
    "lat": 50.0992012024,
    "lon": -102.6070022583
},
"CKD7": {
    "iata": "",
    "name": "Roland (Graham Field) Airport",
    "city": "Roland",
    "state_prov": "Manitoba",
    "lat": 49.4082984924,
    "lon": -97.9906005859
},
"CKD8": {
    "iata": "",
    "name": "Kirkfield / Balsam Lake Airfield",
    "city": "",
    "state_prov": "Ontario",
    "lat": 44.5399876549,
    "lon": -78.8892602921
},
"CKD9": {
    "iata": "",
    "name": "Slate Falls Airport",
    "city": "Slate Falls",
    "state_prov": "Ontario",
    "lat": 51.1300010681,
    "lon": -91.6656036377
},
"CKE2": {
    "iata": "",
    "name": "Quill Lake Airport",
    "city": "Quill Lake",
    "state_prov": "Saskatchewan",
    "lat": 52.0666999817,
    "lon": -104.266998291
},
"CKE8": {
    "iata": "",
    "name": "Unity Airport",
    "city": "Unity",
    "state_prov": "Saskatchewan",
    "lat": 52.4458007813,
    "lon": -109.1849975586
},
"CKF2": {
    "iata": "",
    "name": "Radville Airport",
    "city": "Radville",
    "state_prov": "Saskatchewan",
    "lat": 49.4606018066,
    "lon": -104.2720031738
},
"CKF4": {
    "iata": "",
    "name": "Goodsoil Airport",
    "city": "Goodsoil",
    "state_prov": "Saskatchewan",
    "lat": 54.4166984558,
    "lon": -109.233001709
},
"CKF6": {
    "iata": "",
    "name": "Macgregor Airport",
    "city": "Macgregor",
    "state_prov": "Manitoba",
    "lat": 49.9667015076,
    "lon": -98.75
},
"CKF9": {
    "iata": "",
    "name": "De Lesseps Lake Airport",
    "city": "De Lesseps Lake",
    "state_prov": "Ontario",
    "lat": 50.7174987793,
    "lon": -90.6836013794
},
"CKG2": {
    "iata": "",
    "name": "Riverton Airport",
    "city": "Riverton",
    "state_prov": "Manitoba",
    "lat": 50.971698761,
    "lon": -97.011100769
},
"CKG5": {
    "iata": "",
    "name": "Manitou Airport",
    "city": "Manitou",
    "state_prov": "Manitoba",
    "lat": 49.25,
    "lon": -98.5333023071
},
"CKH2": {
    "iata": "",
    "name": "Rocanville Airport",
    "city": "Rocanville",
    "state_prov": "Saskatchewan",
    "lat": 50.4646987915,
    "lon": -101.5540008545
},
"CKH3": {
    "iata": "",
    "name": "Debden Airport",
    "city": "Debden",
    "state_prov": "Saskatchewan",
    "lat": 53.5318984985,
    "lon": -106.8840026855
},
"CKH7": {
    "iata": "",
    "name": "Spiritwood Airport",
    "city": "Spiritwood",
    "state_prov": "Saskatchewan",
    "lat": 53.3633003235,
    "lon": -107.547996521
},
"CKJ8": {
    "iata": "",
    "name": "Molson Lake Airport",
    "city": "Molson Lake",
    "state_prov": "Manitoba",
    "lat": 54.2580986023,
    "lon": -97.011100769
},
"CKJ9": {
    "iata": "",
    "name": "Lemberg Airport",
    "city": "Lemberg",
    "state_prov": "Saskatchewan",
    "lat": 50.7089004517,
    "lon": -103.1969985962
},
"CKK2": {
    "iata": "",
    "name": "St. Brieux Airport",
    "city": "St. Brieux",
    "state_prov": "Saskatchewan",
    "lat": 52.6500015259,
    "lon": -104.8669967651
},
"CKK3": {
    "iata": "",
    "name": "Scobey Border Station Airport",
    "city": "Coronach",
    "state_prov": "Montana",
    "lat": 48.9994659424,
    "lon": -105.3993377686
},
"CKK4": {
    "iata": "",
    "name": "Estevan (South) Airport",
    "city": "Estevan",
    "state_prov": "Saskatchewan",
    "lat": 49.038898468,
    "lon": -102.9759979248
},
"CKK5": {
    "iata": "",
    "name": "Eastend Airport",
    "city": "Eastend",
    "state_prov": "Saskatchewan",
    "lat": 49.5499992371,
    "lon": -108.8000030518
},
"CKL3": {
    "iata": "WNN",
    "name": "Wunnumin Lake Airport",
    "city": "Wunnumin Lake",
    "state_prov": "Ontario",
    "lat": 52.893901825,
    "lon": -89.2891998291
},
"CKL5": {
    "iata": "",
    "name": "Shoal Lake Airport",
    "city": "Shoal Lake",
    "state_prov": "Manitoba",
    "lat": 50.4575004578,
    "lon": -100.6090011597
},
"CKL6": {
    "iata": "",
    "name": "Little Bear Lake Airport",
    "city": "Little Bear Lake",
    "state_prov": "Saskatchewan",
    "lat": 54.2919006348,
    "lon": -104.6709976196
},
"CKM2": {
    "iata": "",
    "name": "Sioux Narrows Airport",
    "city": "Sioux Narrows",
    "state_prov": "Ontario",
    "lat": 49.3899993896,
    "lon": -93.995300293
},
"CKM4": {
    "iata": "",
    "name": "Jan Lake Airport",
    "city": "Jan Lake",
    "state_prov": "Saskatchewan",
    "lat": 54.8307991028,
    "lon": -102.7890014648
},
"CKM6": {
    "iata": "",
    "name": "Easterville Airport",
    "city": "Easterville",
    "state_prov": "Manitoba",
    "lat": 53.1166992188,
    "lon": -99.8000030518
},
"CKM8": {
    "iata": "",
    "name": "Opapimiskan Lake Airport",
    "city": "Opapimiskan Lake",
    "state_prov": "Ontario",
    "lat": 52.6067008972,
    "lon": -90.3768997192
},
"CKN5": {
    "iata": "",
    "name": "Fillmore Airport",
    "city": "Fillmore",
    "state_prov": "Saskatchewan",
    "lat": 49.8689002991,
    "lon": -103.4449996948
},
"CKN8": {
    "iata": "",
    "name": "Nekweaga Bay Airport",
    "city": "Nekweaga Bay",
    "state_prov": "Saskatchewan",
    "lat": 57.7425003052,
    "lon": -103.9449996948
},
"CKQ2": {
    "iata": "",
    "name": "Squaw Rapids Airport",
    "city": "Squaw Rapids",
    "state_prov": "Saskatchewan",
    "lat": 53.6786003113,
    "lon": -103.3499984741
},
"CKQ3": {
    "iata": "YNO",
    "name": "North Spirit Lake Airport",
    "city": "North Spirit Lake",
    "state_prov": "Ontario",
    "lat": 52.4900016785,
    "lon": -92.9710998535
},
"CKQ5": {
    "iata": "",
    "name": "Lucky Lake Airport",
    "city": "Lucky Lake",
    "state_prov": "Saskatchewan",
    "lat": 50.9942016602,
    "lon": -107.1309967041
},
"CKQ6": {
    "iata": "",
    "name": "Erickson Municipal Airport",
    "city": "Erickson",
    "state_prov": "Manitoba",
    "lat": 50.4994010925,
    "lon": -99.8977966309
},
"CKQ7": {
    "iata": "",
    "name": "Vermilion Bay Airport",
    "city": "Vermilion Bay",
    "state_prov": "Ontario",
    "lat": 49.879699707,
    "lon": -93.4364013672
},
"CKQ8": {
    "iata": "",
    "name": "McArthur River Airport",
    "city": "Mcarthur River",
    "state_prov": "Saskatchewan",
    "lat": 57.7675018311,
    "lon": -105.0240020752
},
"CKQ9": {
    "iata": "",
    "name": "Pine Dock Airport",
    "city": "Pine Dock",
    "state_prov": "Manitoba",
    "lat": 51.6199989319,
    "lon": -96.810798645
},
"CKR3": {
    "iata": "",
    "name": "Ste. Rose Du Lac Airport",
    "city": "Ste. Rose Du Lac",
    "state_prov": "Manitoba",
    "lat": 51.0407981873,
    "lon": -99.495300293
},
"CKR4": {
    "iata": "",
    "name": "Lundar Airport",
    "city": "Lundar",
    "state_prov": "Manitoba",
    "lat": 50.7033004761,
    "lon": -98.0567016602
},
"CKR7": {
    "iata": "",
    "name": "Virden (Gabrielle Farm) Airport",
    "city": "Virden",
    "state_prov": "Manitoba",
    "lat": 49.7846984863,
    "lon": -100.9560012817
},
"CKR9": {
    "iata": "",
    "name": "Outlook Airport",
    "city": "Outlook",
    "state_prov": "Saskatchewan",
    "lat": 51.4824981689,
    "lon": -107.0370025635
},
"CKS6": {
    "iata": "",
    "name": "Bryant Airport",
    "city": "Estevan",
    "state_prov": "Saskatchewan",
    "lat": 49.4099998474,
    "lon": -103.1439971924
},
"CKS7": {
    "iata": "",
    "name": "Wadena Airport",
    "city": "Wadena",
    "state_prov": "Saskatchewan",
    "lat": 51.9294480759,
    "lon": -103.833761215
},
"CKS8": {
    "iata": "",
    "name": "Cree Lake (Crystal Lodge) Airport",
    "city": "Cree Lake",
    "state_prov": "Saskatchewan",
    "lat": 57.4641990662,
    "lon": -106.7480010986
},
"CKS9": {
    "iata": "",
    "name": "Shepherd's Landing Airport",
    "city": "Kincardine",
    "state_prov": "Ontario",
    "lat": 44.1175003052,
    "lon": -81.6983032227
},
"CKT5": {
    "iata": "",
    "name": "Hartney Airport",
    "city": "Hartney",
    "state_prov": "Manitoba",
    "lat": 49.4500007629,
    "lon": -100.5500030518
},
"CKT7": {
    "iata": "",
    "name": "Wakaw Airport",
    "city": "Wakaw",
    "state_prov": "Saskatchewan",
    "lat": 52.6490522523,
    "lon": -105.763063431
},
"CKU2": {
    "iata": "",
    "name": "Treherne Airport",
    "city": "Treherne",
    "state_prov": "Manitoba",
    "lat": 49.6310997009,
    "lon": -98.6663970947
},
"CKU4": {
    "iata": "",
    "name": "Cut Knife Airport",
    "city": "Cut Knife",
    "state_prov": "Saskatchewan",
    "lat": 52.7332992554,
    "lon": -109.016998291
},
"CKU5": {
    "iata": "",
    "name": "Imperial Airport",
    "city": "Imperial",
    "state_prov": "Saskatchewan",
    "lat": 51.3499984741,
    "lon": -105.4000015259
},
"CKU6": {
    "iata": "",
    "name": "Grenfell Airport",
    "city": "Grenfell",
    "state_prov": "Saskatchewan",
    "lat": 50.4192008972,
    "lon": -102.9349975586
},
"CKU7": {
    "iata": "",
    "name": "Watrous Airport",
    "city": "Watrous",
    "state_prov": "Saskatchewan",
    "lat": 51.68713736,
    "lon": -105.362319946
},
"CKV2": {
    "iata": "",
    "name": "Kelvington Airport",
    "city": "Kelvington",
    "state_prov": "Saskatchewan",
    "lat": 52.1333007813,
    "lon": -103.5350036621
},
"CKV4": {
    "iata": "",
    "name": "North of Sixty Airport",
    "city": "Obre Lake",
    "state_prov": "Northwest Territories",
    "lat": 60.3163986206,
    "lon": -103.1289978027
},
"CKV6": {
    "iata": "",
    "name": "Churchbridge Airport",
    "city": "Churchbridge",
    "state_prov": "Saskatchewan",
    "lat": 51.0167007446,
    "lon": -101.8170013428
},
"CKV7": {
    "iata": "",
    "name": "Wawota Airport",
    "city": "Wawota",
    "state_prov": "Saskatchewan",
    "lat": 49.8944823433,
    "lon": -102.03045845
},
"CKW6": {
    "iata": "",
    "name": "Davin Lake Airport",
    "city": "Davin Lake",
    "state_prov": "Saskatchewan",
    "lat": 56.8833007813,
    "lon": -103.5830001831
},
"CKX4": {
    "iata": "",
    "name": "Fisher Branch Airport",
    "city": "Fisher Branch",
    "state_prov": "Manitoba",
    "lat": 51.0833015442,
    "lon": -97.4832992554
},
"CKX5": {
    "iata": "",
    "name": "Dinsmore Airport",
    "city": "Dinsmore",
    "state_prov": "Saskatchewan",
    "lat": 51.3306007385,
    "lon": -107.43800354
},
"CKX8": {
    "iata": "",
    "name": "Big River Airport",
    "city": "Big River",
    "state_prov": "Saskatchewan",
    "lat": 53.836101532,
    "lon": -107.0090026855
},
"CKY2": {
    "iata": "",
    "name": "Whitewood Airport",
    "city": "Whitewood",
    "state_prov": "Saskatchewan",
    "lat": 50.3347783814,
    "lon": -102.274475098
},
"CKZ2": {
    "iata": "",
    "name": "Willow Bunch Airport",
    "city": "Willow Bunch",
    "state_prov": "Saskatchewan",
    "lat": 49.4000015259,
    "lon": -105.6669998169
},
"CKZ3": {
    "iata": "",
    "name": "Elk Island Airport",
    "city": "Elk Island",
    "state_prov": "Manitoba",
    "lat": 54.6713981628,
    "lon": -94.1453018188
},
"CKZ6": {
    "iata": "",
    "name": "Louise Municipal Airport",
    "city": "Crystal City-Pilot Mound",
    "state_prov": "Manitoba",
    "lat": 49.1472015381,
    "lon": -98.8807983398
},
"CKZ7": {
    "iata": "",
    "name": "Winkler Airport",
    "city": "Winkler",
    "state_prov": "Manitoba",
    "lat": 49.1669006348,
    "lon": -97.9203033447
},
"CLA5": {
    "iata": "",
    "name": "Lethbridge / Anderson Field",
    "city": "Lethbridge",
    "state_prov": "Alberta",
    "lat": 49.6569444445,
    "lon": -112.772777778
},
"CLE4": {
    "iata": "",
    "name": "Lower East Pubnico (La Field) Airport",
    "city": "Lower East Pubnico",
    "state_prov": "Nova Scotia",
    "lat": 43.6222000122,
    "lon": -65.7619018555
},
"CLG3": {
    "iata": "",
    "name": "Liege / CNRL Airport",
    "city": "Liege",
    "state_prov": "Alberta",
    "lat": 57.0018997192,
    "lon": -113.194000244
},
"CLG7": {
    "iata": "",
    "name": "Fort McMurray / Legend Airfield",
    "city": "",
    "state_prov": "Alberta",
    "lat": 57.19694444,
    "lon": -112.895556
},
"CLJ3": {
    "iata": "",
    "name": "Lethbridge / J3 Airfield",
    "city": "",
    "state_prov": "Alberta",
    "lat": 49.7416214711,
    "lon": -112.738330364
},
"CLK3": {
    "iata": "",
    "name": "Lucknow Airpark",
    "city": "Lucknow",
    "state_prov": "Ontario",
    "lat": 43.9678001404,
    "lon": -81.4933013916
},
"CLM2": {
    "iata": "",
    "name": "Leamington Airport",
    "city": "Leamington",
    "state_prov": "Ontario",
    "lat": 42.0250015259,
    "lon": -82.5250015259
},
"CLN4": {
    "iata": "",
    "name": "Beaverlodge / Clanachan Field",
    "city": "",
    "state_prov": "Alberta",
    "lat": 55.2344927355,
    "lon": -119.841592312
},
"CLS3": {
    "iata": "",
    "name": "Fort McMurray / South Liege Airfield",
    "city": "",
    "state_prov": "Alberta",
    "lat": 56.8323528324,
    "lon": -113.098840714
},
"CLV2": {
    "iata": "",
    "name": "Stayner (Clearview Field)",
    "city": "",
    "state_prov": "Ontario",
    "lat": 44.404637674,
    "lon": -80.1479780674
},
"CMA2": {
    "iata": "",
    "name": "Mattawa Airport",
    "city": "Mattawa",
    "state_prov": "Ontario",
    "lat": 46.2997016907,
    "lon": -78.7478027344
},
"CMB2": {
    "iata": "",
    "name": "Meadowbank Airport",
    "city": "Meadowbank Gold Mine",
    "state_prov": "Nunavut",
    "lat": 65.0246615457,
    "lon": -96.0686588287
},
"CMF3": {
    "iata": "",
    "name": "Lethbridge (Mercer Field)",
    "city": "",
    "state_prov": "Alberta",
    "lat": 49.5548112877,
    "lon": -112.561540604
},
"CMN4": {
    "iata": "",
    "name": "Minto",
    "city": "",
    "state_prov": "Yukon",
    "lat": 62.6047222222,
    "lon": -137.221944444
},
"CMN5": {
    "iata": "",
    "name": "Manic-5",
    "city": "",
    "state_prov": "Quebec",
    "lat": 50.6577319114,
    "lon": -68.8310194016
},
"CMW3": {
    "iata": "",
    "name": "Matawatchan",
    "city": "",
    "state_prov": "Ontario",
    "lat": 45.1643383253,
    "lon": -77.0955276489
},
"CNA2": {
    "iata": "",
    "name": "Highgate Airport",
    "city": "Highgate",
    "state_prov": "Ontario",
    "lat": 42.5544013977,
    "lon": -81.8031005859
},
"CNA3": {
    "iata": "",
    "name": "Springwater Barrie Airpark",
    "city": "Springwater",
    "state_prov": "Ontario",
    "lat": 44.4063987732,
    "lon": -79.7316970825
},
"CNA4": {
    "iata": "",
    "name": "Emsdale Airport",
    "city": "Emsdale",
    "state_prov": "Ontario",
    "lat": 45.5499992371,
    "lon": -79.3499984741
},
"CNA9": {
    "iata": "",
    "name": "Tomvale Airport",
    "city": "Plevna",
    "state_prov": "Ontario",
    "lat": 44.9160995483,
    "lon": -76.935798645
},
"CND4": {
    "iata": "",
    "name": "Stanhope Municipal Airport",
    "city": "Haliburton",
    "state_prov": "Ontario",
    "lat": 45.1108333333,
    "lon": -78.64
},
"CNE3": {
    "iata": "XBE",
    "name": "Bearskin Lake Airport",
    "city": "Bearskin Lake",
    "state_prov": "Ontario",
    "lat": 53.9655990601,
    "lon": -91.0271987915
},
"CNE4": {
    "iata": "",
    "name": "Iroquois Falls Airport",
    "city": "Iroquois Falls",
    "state_prov": "Ontario",
    "lat": 48.7416992188,
    "lon": -80.793296814
},
"CNE9": {
    "iata": "",
    "name": "Essex Airport",
    "city": "Essex",
    "state_prov": "Ontario",
    "lat": 42.0957984924,
    "lon": -82.8794021606
},
"CNF4": {
    "iata": "",
    "name": "Lindsay Airport",
    "city": "Lindsay",
    "state_prov": "Ontario",
    "lat": 44.3647003174,
    "lon": -78.7838973999
},
"CNF8": {
    "iata": "",
    "name": "Dwight Airport",
    "city": "",
    "state_prov": "Ontario",
    "lat": 45.3144454956,
    "lon": -78.9725036621
},
"CNH2": {
    "iata": "",
    "name": "Natuashish Airport",
    "city": "Natuashish",
    "state_prov": "Newfoundland and Labrador",
    "lat": 55.913898468,
    "lon": -61.1843986511
},
"CNJ3": {
    "iata": "",
    "name": "Fort Erie Airport",
    "city": "Fort Erie",
    "state_prov": "Ontario",
    "lat": 42.9172121601,
    "lon": -78.957452774
},
"CNJ4": {
    "iata": "",
    "name": "Orillia Airport",
    "city": "Orillia",
    "state_prov": "Ontario",
    "lat": 44.6776557839,
    "lon": -79.3102169037
},
"CNK4": {
    "iata": "",
    "name": "Parry Sound Area Municipal Airport",
    "city": "Parry Sound",
    "state_prov": "Ontario",
    "lat": 45.2574996948,
    "lon": -79.8296966553
},
"CNL2": {
    "iata": "",
    "name": "Fort McMurray / North Liege Airfield",
    "city": "",
    "state_prov": "Alberta",
    "lat": 57.1360995926,
    "lon": -113.290071487
},
"CNL3": {
    "iata": "",
    "name": "Brockville - Thousand Islands Regional Tackaberry Airport",
    "city": "Brockville",
    "state_prov": "Ontario",
    "lat": 44.6394004822,
    "lon": -75.7502975464
},
"CNL4": {
    "iata": "",
    "name": "Port Elgin Airport",
    "city": "Port Elgin",
    "state_prov": "Ontario",
    "lat": 44.4152984619,
    "lon": -81.4143981934
},
"CNL7": {
    "iata": "",
    "name": "Nobel / Lumsden Air Park",
    "city": "",
    "state_prov": "Ontario",
    "lat": 45.4083333,
    "lon": -80.0780555
},
"CNL8": {
    "iata": "",
    "name": "Wyevale (Boker Field) Airport",
    "city": "Wyevale",
    "state_prov": "Ontario",
    "lat": 44.6553001404,
    "lon": -79.8788986206
},
"CNL9": {
    "iata": "",
    "name": "Nueltin Lake Airport",
    "city": "Nueltin Lake",
    "state_prov": "Manitoba",
    "lat": 59.7080993652,
    "lon": -100.1269989014
},
"CNM5": {
    "iata": "KIF",
    "name": "Kingfisher Lake Airport",
    "city": "Kingfisher Lake",
    "state_prov": "Ontario",
    "lat": 53.0125007629,
    "lon": -89.8553009033
},
"CNN8": {
    "iata": "",
    "name": "Gananoque Airport",
    "city": "Gananoque",
    "state_prov": "Ontario",
    "lat": 44.4019012451,
    "lon": -76.2442016602
},
"CNP6": {
    "iata": "",
    "name": "Nampa / Hockey",
    "city": "",
    "state_prov": "Alberta",
    "lat": 55.914900566,
    "lon": -117.136155367
},
"CNR4": {
    "iata": "",
    "name": "Tobermory Airport",
    "city": "Tobermory",
    "state_prov": "Ontario",
    "lat": 45.2214680842,
    "lon": -81.6275596619
},
"CNR9": {
    "iata": "",
    "name": "Arnstein Airport",
    "city": "Arnstein",
    "state_prov": "Ontario",
    "lat": 45.9255981445,
    "lon": -79.9278030396
},
"CNS7": {
    "iata": "",
    "name": "Kincardine Airport",
    "city": "Kincardine",
    "state_prov": "Ontario",
    "lat": 44.2014007568,
    "lon": -81.6066970825
},
"CNT3": {
    "iata": "YOG",
    "name": "Ogoki Post Airport",
    "city": "Ogoki Post",
    "state_prov": "Ontario",
    "lat": 51.6585998535,
    "lon": -85.9017028809
},
"CNT7": {
    "iata": "",
    "name": "Picton Airport",
    "city": "Picton",
    "state_prov": "Ontario",
    "lat": 43.989200592,
    "lon": -77.1391983032
},
"CNU4": {
    "iata": "",
    "name": "Belleville Airport",
    "city": "Belleville",
    "state_prov": "Ontario",
    "lat": 44.192199707,
    "lon": -77.3094024658
},
"CNV8": {
    "iata": "",
    "name": "Edenvale Aerodrome",
    "city": "Edenvale",
    "state_prov": "Ontario",
    "lat": 44.4411010742,
    "lon": -79.9627990723
},
"CNW2": {
    "iata": "",
    "name": "Windermere Airport",
    "city": "Windermere",
    "state_prov": "Ontario",
    "lat": 45.1624984741,
    "lon": -79.5353012085
},
"CNW3": {
    "iata": "",
    "name": "Bancroft Airport",
    "city": "Bancroft",
    "state_prov": "Ontario",
    "lat": 45.0731010437,
    "lon": -77.8805999756
},
"CNX3": {
    "iata": "",
    "name": "Carey Lake Airport",
    "city": "Carey Lake",
    "state_prov": "Ontario",
    "lat": 49.75,
    "lon": -84.0333023071
},
"CNY3": {
    "iata": "",
    "name": "Collingwood Airport",
    "city": "Collingwood",
    "state_prov": "Ontario",
    "lat": 44.4491996765,
    "lon": -80.1583023071
},
"CNZ4": {
    "iata": "",
    "name": "Barry's Bay / Madawaska Valley Airpark",
    "city": "Barry's Bay",
    "state_prov": "Ontario",
    "lat": 45.5047227536,
    "lon": -77.6440930367
},
"CPB8": {
    "iata": "",
    "name": "Paramount Bistcho Airport",
    "city": "Paramount Bistcho",
    "state_prov": "Alberta",
    "lat": 59.6380996704,
    "lon": -118.3330001831
},
"CPC6": {
    "iata": "",
    "name": "Teeswater (Thompson Field) Airport",
    "city": "Teeswater",
    "state_prov": "Ontario",
    "lat": 43.948299408,
    "lon": -81.2718963623
},
"CPD4": {
    "iata": "",
    "name": "Brussels (Armstrong Field) Airport",
    "city": "Brussels",
    "state_prov": "Ontario",
    "lat": 43.75,
    "lon": -81.2332992554
},
"CPE3": {
    "iata": "",
    "name": "Elk Lake Airport",
    "city": "Elk Lake",
    "state_prov": "Ontario",
    "lat": 47.7285995483,
    "lon": -80.3158035278
},
"CPE6": {
    "iata": "",
    "name": "South River/Sundridge Airport & Float Plane Base",
    "city": "South River - Sundridge",
    "state_prov": "Ontario",
    "lat": 45.8210983276,
    "lon": -79.3233032227
},
"CPF2": {
    "iata": "YEB",
    "name": "Bar River Airport",
    "city": "Bar River",
    "state_prov": "Ontario",
    "lat": 46.42029953,
    "lon": -84.0922012329
},
"CPF4": {
    "iata": "",
    "name": "Bruce McPhail Memorial Airport",
    "city": "Cobden",
    "state_prov": "Ontario",
    "lat": 45.5950012207,
    "lon": -76.8332977295
},
"CPF7": {
    "iata": "",
    "name": "Southampton Airport",
    "city": "Southampton",
    "state_prov": "Ontario",
    "lat": 44.4939002991,
    "lon": -81.3352966309
},
"CPG6": {
    "iata": "",
    "name": "Port Elgin (Pryde Field) Airport",
    "city": "Port Elgin",
    "state_prov": "Ontario",
    "lat": 44.4589004517,
    "lon": -81.379699707
},
"CPH2": {
    "iata": "",
    "name": "Rolph Airport",
    "city": "Deep River",
    "state_prov": "Ontario",
    "lat": 46.1166992188,
    "lon": -77.5333023071
},
"CPH3": {
    "iata": "",
    "name": "Port Hope (Peter's Field)",
    "city": "Port Hope",
    "state_prov": "Ontario",
    "lat": 44.0248843879,
    "lon": -78.4269762039
},
"CPJ5": {
    "iata": "",
    "name": "Stirling Airport",
    "city": "Stirling",
    "state_prov": "Ontario",
    "lat": 44.2414016724,
    "lon": -77.5616989136
},
"CPL5": {
    "iata": "",
    "name": "Thessalon Municipal Airport",
    "city": "Thessalon",
    "state_prov": "Ontario",
    "lat": 46.3166999817,
    "lon": -83.5333023071
},
"CPM3": {
    "iata": "",
    "name": "POURVOIRIE MIRAGE AERODROME",
    "city": "",
    "state_prov": "Quebec",
    "lat": 53.8025,
    "lon": -72.841389
},
"CPR7": {
    "iata": "",
    "name": "Wingham / Richard W. LeVan Airport",
    "city": "Wingham",
    "state_prov": "Ontario",
    "lat": 43.8675003052,
    "lon": -81.2985992432
},
"CPS2": {
    "iata": "",
    "name": "Elmhirst's Resort Airport",
    "city": "Keene",
    "state_prov": "Ontario",
    "lat": 44.251470223,
    "lon": -78.1072568893
},
"CPS5": {
    "iata": "",
    "name": "Miminiska Airport",
    "city": "Miminiska",
    "state_prov": "Ontario",
    "lat": 51.6044006348,
    "lon": -88.5821990967
},
"CPT2": {
    "iata": "",
    "name": "Killarney Airport",
    "city": "Killarney",
    "state_prov": "Ontario",
    "lat": 45.9775009155,
    "lon": -81.4946975708
},
"CPU6": {
    "iata": "",
    "name": "Tyendinaga Mohawk Airport",
    "city": "Tyendinaga",
    "state_prov": "Ontario",
    "lat": 44.1847000122,
    "lon": -77.1078033447
},
"CPV3": {
    "iata": "",
    "name": "St. Joseph Island Airport",
    "city": "St. Joseph Island",
    "state_prov": "Ontario",
    "lat": 46.2832984924,
    "lon": -83.9499969482
},
"CPV7": {
    "iata": "YHP",
    "name": "Poplar Hill Airport",
    "city": "Poplar Hill",
    "state_prov": "Ontario",
    "lat": 52.1133003235,
    "lon": -94.2555999756
},
"CPV8": {
    "iata": "",
    "name": "Keewaywin Airport",
    "city": "Keewaywin",
    "state_prov": "Ontario",
    "lat": 52.9911003113,
    "lon": -92.8364028931
},
"CPZ3": {
    "iata": "",
    "name": "Trenton / Mountain View Airport",
    "city": "Mountain View",
    "state_prov": "Ontario",
    "lat": 44.0694007874,
    "lon": -77.3380966187
},
"CRB2": {
    "iata": "",
    "name": "Cottam Airport",
    "city": "Cottam",
    "state_prov": "Ontario",
    "lat": 42.1399993896,
    "lon": -82.6528015137
},
"CRB4": {
    "iata": "",
    "name": "Riviere Bonnard Airport",
    "city": "Riviere Bonnard",
    "state_prov": "Quebec",
    "lat": 50.7043991089,
    "lon": -71.1624984741
},
"CRB5": {
    "iata": "",
    "name": "Riviere Bell Airport",
    "city": "Riviere Bell",
    "state_prov": "Quebec",
    "lat": 49.0788993835,
    "lon": -62.2369003296
},
"CRD4": {
    "iata": "",
    "name": "Red Deer / South 40 Airstrip",
    "city": "",
    "state_prov": "Alberta",
    "lat": 52.261944,
    "lon": -113.951389
},
"CRD5": {
    "iata": "",
    "name": "Red Deer / Truant Airfield",
    "city": "",
    "state_prov": "Alberta",
    "lat": 52.2870428404,
    "lon": -113.913180828
},
"CRE2": {
    "iata": "",
    "name": "Edzo Airport",
    "city": "Rae",
    "state_prov": "Northwest Territories",
    "lat": 62.7667007446,
    "lon": -116.0839996338
},
"CRJ2": {
    "iata": "",
    "name": "Stoney Point (Trepanier)",
    "city": "",
    "state_prov": "Ontario",
    "lat": 42.2888870239,
    "lon": -82.5983352661
},
"CRL2": {
    "iata": "",
    "name": "Westport / Rideau Lakes Airport",
    "city": "Westport",
    "state_prov": "Ontario",
    "lat": 44.6666651766,
    "lon": -76.3966673613
},
"CRL4": {
    "iata": "",
    "name": "Kirby Lake Airport",
    "city": "Kirby Lake",
    "state_prov": "Alberta",
    "lat": 55.3555984497,
    "lon": -110.6370010376
},
"CRL7": {
    "iata": "",
    "name": "Reindeer Lake / Lindbergh Lodge Airstrip",
    "city": "",
    "state_prov": "Saskatchewan",
    "lat": 57.28805555,
    "lon": -102.525
},
"CRM2": {
    "iata": "",
    "name": "Riding Mountain Airport",
    "city": "Riding Mountain",
    "state_prov": "Manitoba",
    "lat": 50.573600769,
    "lon": -99.3613967896
},
"CRML": {
    "iata": "",
    "name": "Stoney Point (Le Cunff) Airport",
    "city": "Stoney Point",
    "state_prov": "Ontario",
    "lat": 42.2956008911,
    "lon": -82.5350036621
},
"CRP2": {
    "iata": "",
    "name": "R.M. of Pipestone Airport",
    "city": "Reston",
    "state_prov": "Manitoba",
    "lat": 49.5806007385,
    "lon": -101.0530014038
},
"CRS7": {
    "iata": "",
    "name": "Matoush Airport",
    "city": "",
    "state_prov": "Quebec",
    "lat": 51.905,
    "lon": -72.12388888
},
"CRT2": {
    "iata": "",
    "name": "Riviere Temiscamie (Air Roberval Ltee) Airport",
    "city": "",
    "state_prov": "Quebec",
    "lat": 51.0092455225,
    "lon": -72.9835939407
},
"CSB2": {
    "iata": "",
    "name": "Sable Island Landing Strip",
    "city": "Sable Island",
    "state_prov": "Nova Scotia",
    "lat": 43.9303535212,
    "lon": -59.9597740173
},
"CSC3": {
    "iata": "",
    "name": "Drummondville Airport",
    "city": "Drummondville",
    "state_prov": "Quebec",
    "lat": 45.8452987671,
    "lon": -72.3946990967
},
"CSC5": {
    "iata": "",
    "name": "Lac Etchemin Airport",
    "city": "Lac Etchemin",
    "state_prov": "Quebec",
    "lat": 46.4071998596,
    "lon": -70.5014038086
},
"CSC9": {
    "iata": "",
    "name": "Sudbury / Coniston Airport",
    "city": "Sudbury",
    "state_prov": "Ontario",
    "lat": 46.4822006226,
    "lon": -80.8339004517
},
"CSD4": {
    "iata": "",
    "name": "Mont Laurier Airport",
    "city": "Mont-Laurier",
    "state_prov": "Quebec",
    "lat": 46.5643997192,
    "lon": -75.577796936
},
"CSF3": {
    "iata": "",
    "name": "Poste Montagnais (Mile 134) Airport",
    "city": "Poste Montagnais",
    "state_prov": "Quebec",
    "lat": 51.8885993958,
    "lon": -65.7149963379
},
"CSH4": {
    "iata": "",
    "name": "Lebel-sur-Quevillon Airport",
    "city": "Lebel-sur-Quevillon",
    "state_prov": "Quebec",
    "lat": 49.0303001404,
    "lon": -77.0171966553
},
"CSJ2": {
    "iata": "",
    "name": "Kanawata Aeroparc Airport",
    "city": "Kanawata",
    "state_prov": "Quebec",
    "lat": 47.5946998596,
    "lon": -74.1335983276
},
"CSJ4": {
    "iata": "",
    "name": "Louiseville Airport",
    "city": "Louiseville",
    "state_prov": "Quebec",
    "lat": 46.2461013794,
    "lon": -72.9044036865
},
"CSJ5": {
    "iata": "",
    "name": "St-Louis-De-France Airport",
    "city": "St-Louis-De-France",
    "state_prov": "Quebec",
    "lat": 46.4366989136,
    "lon": -72.6303024292
},
"CSK4": {
    "iata": "",
    "name": "Mansonville Airport",
    "city": "Mansonville",
    "state_prov": "Quebec",
    "lat": 45.0264015198,
    "lon": -72.4019012451
},
"CSK6": {
    "iata": "YNX",
    "name": "Snap Lake Airport",
    "city": "Snap Lake",
    "state_prov": "Northwest Territories",
    "lat": 63.5936012268,
    "lon": -110.90599823
},
"CSL3": {
    "iata": "",
    "name": "Lac a la Tortue Airport",
    "city": "Lac-a-la-Tortue",
    "state_prov": "Quebec",
    "lat": 46.6217002869,
    "lon": -72.6303024292
},
"CSL5": {
    "iata": "",
    "name": "St-Victor-De-Beauce Airport",
    "city": "St-Victor-De-Beauce",
    "state_prov": "Quebec",
    "lat": 46.1183013916,
    "lon": -70.8891983032
},
"CSL9": {
    "iata": "",
    "name": "Baie-Comeau (Manic 1) Airport",
    "city": "Baie-Comeau",
    "state_prov": "Quebec",
    "lat": 49.1843986511,
    "lon": -68.3625030518
},
"CSM3": {
    "iata": "",
    "name": "Thetford Mines Airport",
    "city": "Thetford Mines",
    "state_prov": "Quebec",
    "lat": 46.051700592,
    "lon": -71.2572021484
},
"CSM5": {
    "iata": "",
    "name": "St-Michel-Des-Saints Airport",
    "city": "St-Michel-Des-Saints",
    "state_prov": "Quebec",
    "lat": 46.6808013916,
    "lon": -73.993598938
},
"CSN5": {
    "iata": "",
    "name": "Stanhope Airport",
    "city": "Stanhope",
    "state_prov": "Quebec",
    "lat": 45.0155982971,
    "lon": -71.7944030762
},
"CSQ2": {
    "iata": "",
    "name": "Shuswap (Skwlax Field) Airport",
    "city": "",
    "state_prov": "British Columbia",
    "lat": 50.8786689434,
    "lon": -119.590816498
},
"CSQ3": {
    "iata": "",
    "name": "Valcourt Airport",
    "city": "Valcourt",
    "state_prov": "Quebec",
    "lat": 45.481098175,
    "lon": -72.3103027344
},
"CSR3": {
    "iata": "",
    "name": "Victoriaville Airport",
    "city": "Victoriaville",
    "state_prov": "Quebec",
    "lat": 46.1128005981,
    "lon": -71.9289016724
},
"CSR8": {
    "iata": "",
    "name": "La Sarre Airport",
    "city": "La Sarre",
    "state_prov": "Quebec",
    "lat": 48.9171981812,
    "lon": -79.1785964966
},
"CSU2": {
    "iata": "YKU",
    "name": "Chisasibi Airport",
    "city": "Chisasibi",
    "state_prov": "Quebec",
    "lat": 53.8055992126,
    "lon": -78.9169006348
},
"CSU4": {
    "iata": "",
    "name": "Ste-Lucie-De-Beauregard Airport",
    "city": "Ste-Lucie-De-Beauregard",
    "state_prov": "Quebec",
    "lat": 46.7407989502,
    "lon": -70.0325012207
},
"CSU5": {
    "iata": "",
    "name": "Weymontachie Airport",
    "city": "Weymontachie",
    "state_prov": "Quebec",
    "lat": 47.9369010925,
    "lon": -73.817199707
},
"CSU7": {
    "iata": "",
    "name": "Lac-a-la-Tortue (Water Aerodrome) Airport",
    "city": "Lac-a-la-Tortue",
    "state_prov": "Quebec",
    "lat": 46.6166992188,
    "lon": -72.6258010864
},
"CSY3": {
    "iata": "",
    "name": "Sorel Airport",
    "city": "Sorel",
    "state_prov": "Quebec",
    "lat": 45.9803009033,
    "lon": -73.0421981812
},
"CSY4": {
    "iata": "",
    "name": "St-Donat Airport",
    "city": "St-Donat",
    "state_prov": "Quebec",
    "lat": 46.3058013916,
    "lon": -74.1813964844
},
"CSZ3": {
    "iata": "",
    "name": "St-Jovite Airport",
    "city": "Mont-Tremblant",
    "state_prov": "Quebec",
    "lat": 46.1542015076,
    "lon": -74.5836029053
},
"CTA3": {
    "iata": "",
    "name": "Ile aux Coudres Airport",
    "city": "Ile aux Coudres",
    "state_prov": "Quebec",
    "lat": 47.3894004822,
    "lon": -70.3843994141
},
"CTA4": {
    "iata": "",
    "name": "St Bruno-de-Guigues Airport",
    "city": "St-Bruno-de-Guigues",
    "state_prov": "Quebec",
    "lat": 47.4491996765,
    "lon": -79.4180984497
},
"CTB6": {
    "iata": "ZTB",
    "name": "Tete-a-la-Baleine Airport",
    "city": "Tete-a-la-Baleine",
    "state_prov": "Quebec",
    "lat": 50.6744003296,
    "lon": -59.3835983276
},
"CTE5": {
    "iata": "",
    "name": "Lac a la Perchaude Airport",
    "city": "Lac a la Perchaude",
    "state_prov": "Quebec",
    "lat": 46.6225013733,
    "lon": -72.8482971191
},
"CTF3": {
    "iata": "",
    "name": "Causapscal Airport",
    "city": "Causapscal",
    "state_prov": "Quebec",
    "lat": 48.3114013672,
    "lon": -67.2514038086
},
"CTF4": {
    "iata": "",
    "name": "Dundalk (Tripp Field)",
    "city": "",
    "state_prov": "Ontario",
    "lat": 44.1743863972,
    "lon": -80.3079128265
},
"CTG3": {
    "iata": "",
    "name": "Du Rocher-Perce (Pabok) Airport",
    "city": "Du Rocher-Perce",
    "state_prov": "Quebec",
    "lat": 48.3833007813,
    "lon": -64.5643997192
},
"CTH2": {
    "iata": "",
    "name": "Thor Lake Airport",
    "city": "",
    "state_prov": "Northwest Territories",
    "lat": 62.1007902302,
    "lon": -112.624111176
},
"CTH3": {
    "iata": "",
    "name": "Grandes-Bergeronnes Airport",
    "city": "Grandes-Bergeronnes",
    "state_prov": "Quebec",
    "lat": 48.2322006226,
    "lon": -69.5428009033
},
"CTK2": {
    "iata": "",
    "name": "Senneterre Airport",
    "city": "Senneterre",
    "state_prov": "Quebec",
    "lat": 48.3405990601,
    "lon": -77.181098938
},
"CTK6": {
    "iata": "",
    "name": "Kegaska Airport",
    "city": "Kegaska",
    "state_prov": "Quebec",
    "lat": 50.1958007813,
    "lon": -61.2658004761
},
"CTN6": {
    "iata": "",
    "name": "Treherne (South Norfolk Airpark) Airport",
    "city": "Treherne",
    "state_prov": "Manitoba",
    "lat": 49.6596984863,
    "lon": -98.6652984619
},
"CTP9": {
    "iata": "YAU",
    "name": "Donaldson Airport",
    "city": "Kattiniq",
    "state_prov": "Quebec",
    "lat": 61.6622009277,
    "lon": -73.3214035034
},
"CTQ2": {
    "iata": "",
    "name": "Weller Airport",
    "city": "Stanstead",
    "state_prov": "Vermont",
    "lat": 45.0344009399,
    "lon": -72.0350036621
},
"CTT5": {
    "iata": "",
    "name": "La Romaine Airport",
    "city": "La Romaine",
    "state_prov": "Quebec",
    "lat": 50.2597007751,
    "lon": -60.6794013977
},
"CTU2": {
    "iata": "",
    "name": "Fontanges Airport",
    "city": "Fontanges",
    "state_prov": "Quebec",
    "lat": 54.5539016724,
    "lon": -71.1733016968
},
"CTU5": {
    "iata": "ZLT",
    "name": "La Tabatiere Airport",
    "city": "La Tabatiere",
    "state_prov": "Quebec",
    "lat": 50.8307991028,
    "lon": -58.9756011963
},
"CTY4": {
    "iata": "",
    "name": "Olds / North 40 Ranch Airstrip",
    "city": "",
    "state_prov": "Alberta",
    "lat": 51.9001705129,
    "lon": -114.147820473
},
"CVB2": {
    "iata": "",
    "name": "Voisey's Bay",
    "city": "",
    "state_prov": "Newfoundland and Labrador",
    "lat": 56.3447222222,
    "lon": -62.0880555556
},
"CVS2": {
    "iata": "",
    "name": "Viking (South) Airport",
    "city": "Viking",
    "state_prov": "Alberta",
    "lat": 53.0256004333,
    "lon": -111.9489974976
},
"CWF2": {
    "iata": "",
    "name": "Walter's Falls (Piper Way) Airfield",
    "city": "",
    "state_prov": "Ontario",
    "lat": 44.463879951,
    "lon": -80.6214737892
},
"CWJC": {
    "iata": "",
    "name": "Ennadai Lake Airport",
    "city": "Ennadai",
    "state_prov": "Nunavut",
    "lat": 61.1333333333,
    "lon": -100.9
},
"CYAB": {
    "iata": "YAB",
    "name": "Arctic Bay Airport",
    "city": "",
    "state_prov": "Nunavut",
    "lat": 73.0057668174,
    "lon": -85.0425052643
},
"CYAC": {
    "iata": "YAC",
    "name": "Cat Lake Airport",
    "city": "Cat Lake",
    "state_prov": "Ontario",
    "lat": 51.7271995544,
    "lon": -91.8244018555
},
"CYAD": {
    "iata": "YAR",
    "name": "La Grande-3 Airport",
    "city": "La Grande-3",
    "state_prov": "Quebec",
    "lat": 53.5717010498,
    "lon": -76.1964035034
},
"CYAG": {
    "iata": "YAG",
    "name": "Fort Frances Municipal Airport",
    "city": "Fort Frances",
    "state_prov": "Ontario",
    "lat": 48.6542015076,
    "lon": -93.4396972656
},
"CYAH": {
    "iata": "YAH",
    "name": "La Grande-4 Airport",
    "city": "La Grande-4",
    "state_prov": "Quebec",
    "lat": 53.754699707,
    "lon": -73.6753005981
},
"CYAL": {
    "iata": "YAL",
    "name": "Alert Bay Airport",
    "city": "Alert Bay",
    "state_prov": "British Columbia",
    "lat": 50.5821990967,
    "lon": -126.9160003662
},
"CYAM": {
    "iata": "YAM",
    "name": "Sault Ste Marie Airport",
    "city": "Sault Ste Marie",
    "state_prov": "Ontario",
    "lat": 46.4850006104,
    "lon": -84.5093994141
},
"CYAQ": {
    "iata": "XKS",
    "name": "Kasabonika Airport",
    "city": "Kasabonika",
    "state_prov": "Ontario",
    "lat": 53.5247001648,
    "lon": -88.6427993774
},
"CYAS": {
    "iata": "YKG",
    "name": "Kangirsuk Airport",
    "city": "Kangirsuk",
    "state_prov": "Quebec",
    "lat": 60.0271987915,
    "lon": -69.9991989136
},
"CYAT": {
    "iata": "YAT",
    "name": "Attawapiskat Airport",
    "city": "Attawapiskat",
    "state_prov": "Ontario",
    "lat": 52.9275016785,
    "lon": -82.4319000244
},
"CYAU": {
    "iata": "",
    "name": "Liverpool South Shore Regional Airport",
    "city": "Liverpool",
    "state_prov": "Nova Scotia",
    "lat": 44.2303009033,
    "lon": -64.8561019897
},
"CYAX": {
    "iata": "",
    "name": "Lac Du Bonnet Airport",
    "city": "Lac Du Bonnet",
    "state_prov": "Manitoba",
    "lat": 50.2943992615,
    "lon": -96.0100021362
},
"CYAY": {
    "iata": "YAY",
    "name": "St. Anthony Airport",
    "city": "St. Anthony",
    "state_prov": "Newfoundland and Labrador",
    "lat": 51.3918991089,
    "lon": -56.0830993652
},
"CYAZ": {
    "iata": "YAZ",
    "name": "Tofino / Long Beach Airport",
    "city": "Tofino",
    "state_prov": "British Columbia",
    "lat": 49.0798255464,
    "lon": -125.775604248
},
"CYBA": {
    "iata": "YBA",
    "name": "Banff Airport",
    "city": "Banff",
    "state_prov": "Alberta",
    "lat": 51.2073404699,
    "lon": -115.541861057
},
"CYBB": {
    "iata": "YBB",
    "name": "Kugaaruk Airport",
    "city": "Kugaaruk",
    "state_prov": "Nunavut",
    "lat": 68.5344009399,
    "lon": -89.8080978394
},
"CYBC": {
    "iata": "YBC",
    "name": "Baie Comeau Airport",
    "city": "Baie-Comeau",
    "state_prov": "Quebec",
    "lat": 49.1324996948,
    "lon": -68.2043991089
},
"CYBD": {
    "iata": "QBC",
    "name": "Bella Coola Airport",
    "city": "Bella Coola",
    "state_prov": "British Columbia",
    "lat": 52.3875007629,
    "lon": -126.5960006714
},
"CYBE": {
    "iata": "YBE",
    "name": "Uranium City Airport",
    "city": "Uranium City",
    "state_prov": "Saskatchewan",
    "lat": 59.5614013672,
    "lon": -108.4810028076
},
"CYBF": {
    "iata": "YBY",
    "name": "Bonnyville Airport",
    "city": "Bonnyville",
    "state_prov": "Alberta",
    "lat": 54.3041992188,
    "lon": -110.7440032959
},
"CYBG": {
    "iata": "YBG",
    "name": "CFB Bagotville",
    "city": "Bagotville",
    "state_prov": "Quebec",
    "lat": 48.3306007385,
    "lon": -70.9963989258
},
"CYBK": {
    "iata": "YBK",
    "name": "Baker Lake Airport",
    "city": "Baker Lake",
    "state_prov": "Nunavut",
    "lat": 64.2988967896,
    "lon": -96.077796936
},
"CYBL": {
    "iata": "YBL",
    "name": "Campbell River Airport",
    "city": "Campbell River",
    "state_prov": "British Columbia",
    "lat": 49.9508018494,
    "lon": -125.2710037231
},
"CYBP": {
    "iata": "",
    "name": "Brooks Regional",
    "city": "Brooks",
    "state_prov": "Alberta",
    "lat": 50.6335983276,
    "lon": -111.9260025024
},
"CYBQ": {
    "iata": "XTL",
    "name": "Tadoule Lake Airport",
    "city": "Tadoule Lake",
    "state_prov": "Manitoba",
    "lat": 58.7061004639,
    "lon": -98.5121994019
},
"CYBR": {
    "iata": "YBR",
    "name": "Brandon Municipal Airport",
    "city": "Brandon",
    "state_prov": "Manitoba",
    "lat": 49.9099998474,
    "lon": -99.9518966675
},
"CYBT": {
    "iata": "YBT",
    "name": "Brochet Airport",
    "city": "Brochet",
    "state_prov": "Manitoba",
    "lat": 57.8894004822,
    "lon": -101.6790008545
},
"CYBU": {
    "iata": "",
    "name": "Nipawin Airport",
    "city": "Nipawin",
    "state_prov": "Saskatchewan",
    "lat": 53.3325004578,
    "lon": -104.0080032349
},
"CYBV": {
    "iata": "YBV",
    "name": "Berens River Airport",
    "city": "Berens River",
    "state_prov": "Manitoba",
    "lat": 52.3588981628,
    "lon": -97.0183029175
},
"CYBX": {
    "iata": "YBX",
    "name": "Lourdes de Blanc Sablon Airport",
    "city": "Lourdes-De-Blanc-Sablon",
    "state_prov": "Quebec",
    "lat": 51.4435997009,
    "lon": -57.1852989197
},
"CYCA": {
    "iata": "YRF",
    "name": "Cartwright Airport",
    "city": "Cartwright",
    "state_prov": "Newfoundland and Labrador",
    "lat": 53.682800293,
    "lon": -57.0419006348
},
"CYCB": {
    "iata": "YCB",
    "name": "Cambridge Bay Airport",
    "city": "Cambridge Bay",
    "state_prov": "Nunavut",
    "lat": 69.1081008911,
    "lon": -105.138000488
},
"CYCC": {
    "iata": "YCC",
    "name": "Cornwall Regional Airport",
    "city": "Cornwall",
    "state_prov": "Quebec",
    "lat": 45.0928001404,
    "lon": -74.5633010864
},
"CYCG": {
    "iata": "YCG",
    "name": "Castlegar/West Kootenay Regional Airport",
    "city": "Castlegar",
    "state_prov": "British Columbia",
    "lat": 49.2963981628,
    "lon": -117.632003784
},
"CYCH": {
    "iata": "YCH",
    "name": "Miramichi Airport",
    "city": "Miramichi",
    "state_prov": "New Brunswick",
    "lat": 47.0078010559,
    "lon": -65.4492034912
},
"CYCK": {
    "iata": "XCM",
    "name": "Chatham Kent Airport",
    "city": "Chatham-Kent",
    "state_prov": "Ontario",
    "lat": 42.3064002991,
    "lon": -82.0819015503
},
"CYCL": {
    "iata": "YCL",
    "name": "Charlo Airport",
    "city": "Charlo",
    "state_prov": "New Brunswick",
    "lat": 47.9907989502,
    "lon": -66.3302993774
},
"CYCN": {
    "iata": "YCN",
    "name": "Cochrane Airport",
    "city": "Cochrane",
    "state_prov": "Ontario",
    "lat": 49.1055984497,
    "lon": -81.0136032104
},
"CYCO": {
    "iata": "YCO",
    "name": "Kugluktuk Airport",
    "city": "Kugluktuk",
    "state_prov": "Nunavut",
    "lat": 67.8167037964,
    "lon": -115.143997192
},
"CYCP": {
    "iata": "",
    "name": "Blue River Airport",
    "city": "Blue River",
    "state_prov": "British Columbia",
    "lat": 52.1166992188,
    "lon": -119.2829971313
},
"CYCQ": {
    "iata": "YCQ",
    "name": "Chetwynd Airport",
    "city": "Chetwynd",
    "state_prov": "British Columbia",
    "lat": 55.6871986389,
    "lon": -121.6269989014
},
"CYCR": {
    "iata": "YCR",
    "name": "Cross Lake (Charlie Sinclair Memorial) Airport",
    "city": "Cross Lake",
    "state_prov": "Manitoba",
    "lat": 54.6105995178,
    "lon": -97.7608032227
},
"CYCS": {
    "iata": "YCS",
    "name": "Chesterfield Inlet Airport",
    "city": "Chesterfield Inlet",
    "state_prov": "Nunavut",
    "lat": 63.3469009399,
    "lon": -90.7311019897
},
"CYCT": {
    "iata": "YCT",
    "name": "Coronation Airport",
    "city": "Coronation",
    "state_prov": "Alberta",
    "lat": 52.0750007629,
    "lon": -111.4449996948
},
"CYCY": {
    "iata": "YCY",
    "name": "Clyde River Airport",
    "city": "Clyde River",
    "state_prov": "Nunavut",
    "lat": 70.4860992432,
    "lon": -68.5167007446
},
"CYCZ": {
    "iata": "YCZ",
    "name": "Fairmont Hot Springs Airport",
    "city": "Fairmont Hot Springs",
    "state_prov": "British Columbia",
    "lat": 50.3302993774,
    "lon": -115.873001099
},
"CYDA": {
    "iata": "YDA",
    "name": "Dawson City Airport",
    "city": "Dawson City",
    "state_prov": "Yukon",
    "lat": 64.0430984497,
    "lon": -139.1280059814
},
"CYDB": {
    "iata": "YDB",
    "name": "Burwash Airport",
    "city": "Burwash",
    "state_prov": "Yukon",
    "lat": 61.3711013794,
    "lon": -139.0410003662
},
"CYDC": {
    "iata": "",
    "name": "Princeton Airport",
    "city": "Town of Princeton",
    "state_prov": "British Columbia",
    "lat": 49.4681015015,
    "lon": -120.511001587
},
"CYDF": {
    "iata": "YDF",
    "name": "Deer Lake Airport",
    "city": "Deer Lake",
    "state_prov": "Newfoundland and Labrador",
    "lat": 49.2108001709,
    "lon": -57.3913993835
},
"CYDL": {
    "iata": "YDL",
    "name": "Dease Lake Airport",
    "city": "Dease Lake",
    "state_prov": "British Columbia",
    "lat": 58.4221992493,
    "lon": -130.0319976807
},
"CYDM": {
    "iata": "YDM",
    "name": "Ross River Airport",
    "city": "Ross River",
    "state_prov": "Yukon",
    "lat": 61.9706001282,
    "lon": -132.4230041504
},
"CYDN": {
    "iata": "YDN",
    "name": "Dauphin Barker Airport",
    "city": "Dauphin",
    "state_prov": "Manitoba",
    "lat": 51.1007995605,
    "lon": -100.0520019531
},
"CYDO": {
    "iata": "YDO",
    "name": "Dolbeau St Felicien Airport",
    "city": "Dolbeau-St-Felicien",
    "state_prov": "Quebec",
    "lat": 48.7784996033,
    "lon": -72.375
},
"CYDP": {
    "iata": "YDP",
    "name": "Nain Airport",
    "city": "Nain",
    "state_prov": "Newfoundland and Labrador",
    "lat": 56.5491981506,
    "lon": -61.6803016663
},
"CYDQ": {
    "iata": "YDQ",
    "name": "Dawson Creek Airport",
    "city": "Dawson Creek",
    "state_prov": "British Columbia",
    "lat": 55.7422981262,
    "lon": -120.1829986572
},
"CYEA": {
    "iata": "",
    "name": "Empress Airport",
    "city": "Empress",
    "state_prov": "Alberta",
    "lat": 50.9333000183,
    "lon": -110.0130004883
},
"CYEE": {
    "iata": "",
    "name": "Huronia Airport",
    "city": "Midland",
    "state_prov": "Ontario",
    "lat": 44.6833000183,
    "lon": -79.9282989502
},
"CYEG": {
    "iata": "YEG",
    "name": "Edmonton International Airport",
    "city": "Edmonton",
    "state_prov": "Alberta",
    "lat": 53.3097000122,
    "lon": -113.580001831
},
"CYEK": {
    "iata": "YEK",
    "name": "Arviat Airport",
    "city": "Arviat",
    "state_prov": "Nunavut",
    "lat": 61.0942001343,
    "lon": -94.0708007812
},
"CYEL": {
    "iata": "YEL",
    "name": "Elliot Lake Municipal Airport",
    "city": "Elliot Lake",
    "state_prov": "Ontario",
    "lat": 46.351398468,
    "lon": -82.5614013672
},
"CYEM": {
    "iata": "YEM",
    "name": "Manitoulin East Municipal Airport",
    "city": "Manitowaning",
    "state_prov": "Ontario",
    "lat": 45.8428001404,
    "lon": -81.8581008911
},
"CYEN": {
    "iata": "YEN",
    "name": "Estevan Airport",
    "city": "Estevan",
    "state_prov": "Saskatchewan",
    "lat": 49.2103004456,
    "lon": -102.966003418
},
"CYER": {
    "iata": "YER",
    "name": "Fort Severn Airport",
    "city": "Fort Severn",
    "state_prov": "Ontario",
    "lat": 56.018901825,
    "lon": -87.6761016846
},
"CYES": {
    "iata": "",
    "name": "Edmundston Airport",
    "city": "Edmundston",
    "state_prov": "New Brunswick",
    "lat": 47.4906005859,
    "lon": -68.4819030762
},
"CYET": {
    "iata": "YET",
    "name": "Edson Airport",
    "city": "Edson",
    "state_prov": "Alberta",
    "lat": 53.5788993835,
    "lon": -116.464996338
},
"CYEU": {
    "iata": "YEU",
    "name": "Eureka Airport",
    "city": "Eureka",
    "state_prov": "Nunavut",
    "lat": 79.9946975708,
    "lon": -85.814201355
},
"CYEV": {
    "iata": "YEV",
    "name": "Inuvik Mike Zubko Airport",
    "city": "Inuvik",
    "state_prov": "Northwest Territories",
    "lat": 68.3041992188,
    "lon": -133.483001709
},
"CYEY": {
    "iata": "YEY",
    "name": "Amos Magny Airport",
    "city": "Amos",
    "state_prov": "Quebec",
    "lat": 48.5638999939,
    "lon": -78.2497024536
},
"CYFA": {
    "iata": "YFA",
    "name": "Fort Albany Airport",
    "city": "Fort Albany",
    "state_prov": "Ontario",
    "lat": 52.2014007568,
    "lon": -81.6968994141
},
"CYFB": {
    "iata": "YFB",
    "name": "Iqaluit Airport",
    "city": "Iqaluit",
    "state_prov": "Nunavut",
    "lat": 63.756401062,
    "lon": -68.5558013916
},
"CYFC": {
    "iata": "YFC",
    "name": "Fredericton Airport",
    "city": "Fredericton",
    "state_prov": "New Brunswick",
    "lat": 45.8689002991,
    "lon": -66.5372009277
},
"CYFE": {
    "iata": "YFE",
    "name": "Forestville Airport",
    "city": "Forestville",
    "state_prov": "Quebec",
    "lat": 48.7461013794,
    "lon": -69.0971984863
},
"CYFH": {
    "iata": "YFH",
    "name": "Fort Hope Airport",
    "city": "Fort Hope",
    "state_prov": "Ontario",
    "lat": 51.5619010925,
    "lon": -87.9077987671
},
"CYFJ": {
    "iata": "YTM",
    "name": "La Macaza / Mont-Tremblant International Inc Airport",
    "city": "Riviere Rouge",
    "state_prov": "Quebec",
    "lat": 46.4094009399,
    "lon": -74.7799987793
},
"CYFO": {
    "iata": "YFO",
    "name": "Flin Flon Airport",
    "city": "Flin Flon",
    "state_prov": "Manitoba",
    "lat": 54.6781005859,
    "lon": -101.6819992065
},
"CYFR": {
    "iata": "YFR",
    "name": "Fort Resolution Airport",
    "city": "Fort Resolution",
    "state_prov": "Northwest Territories",
    "lat": 61.1808013916,
    "lon": -113.690002441
},
"CYFS": {
    "iata": "YFS",
    "name": "Fort Simpson Airport",
    "city": "Fort Simpson",
    "state_prov": "Northwest Territories",
    "lat": 61.7602005005,
    "lon": -121.2369995117
},
"CYFT": {
    "iata": "YMN",
    "name": "Makkovik Airport",
    "city": "Makkovik",
    "state_prov": "Newfoundland and Labrador",
    "lat": 55.0769004822,
    "lon": -59.1864013672
},
"CYGB": {
    "iata": "YGB",
    "name": "Texada Gillies Bay Airport",
    "city": "Texada",
    "state_prov": "British Columbia",
    "lat": 49.6941986084,
    "lon": -124.5179977417
},
"CYGD": {
    "iata": "YGD",
    "name": "Goderich Airport",
    "city": "Goderich",
    "state_prov": "Ontario",
    "lat": 43.7668991089,
    "lon": -81.7106018066
},
"CYGE": {
    "iata": "",
    "name": "Golden Airport",
    "city": "Golden",
    "state_prov": "British Columbia",
    "lat": 51.2991981506,
    "lon": -116.9820022583
},
"CYGH": {
    "iata": "YGH",
    "name": "Fort Good Hope Airport",
    "city": "Fort Good Hope",
    "state_prov": "Northwest Territories",
    "lat": 66.2407989502,
    "lon": -128.6510009766
},
"CYGK": {
    "iata": "YGK",
    "name": "Kingston Norman Rogers Airport",
    "city": "Kingston",
    "state_prov": "Ontario",
    "lat": 44.2252998352,
    "lon": -76.5969009399
},
"CYGL": {
    "iata": "YGL",
    "name": "La Grande Riviere Airport",
    "city": "La Grande Riviere",
    "state_prov": "Quebec",
    "lat": 53.6253013611,
    "lon": -77.7042007446
},
"CYGM": {
    "iata": "YGM",
    "name": "Gimli Industrial Park Airport",
    "city": "Gimli",
    "state_prov": "Manitoba",
    "lat": 50.6281013489,
    "lon": -97.043296814
},
"CYGO": {
    "iata": "YGO",
    "name": "Gods Lake Narrows Airport",
    "city": "Gods Lake Narrows",
    "state_prov": "Manitoba",
    "lat": 54.5588989258,
    "lon": -94.4914016724
},
"CYGP": {
    "iata": "YGP",
    "name": "Gaspe (Michel-Pouliot) Airport",
    "city": "Gaspe",
    "state_prov": "Quebec",
    "lat": 48.7752990723,
    "lon": -64.4785995483
},
"CYGQ": {
    "iata": "YGQ",
    "name": "Geraldton Greenstone Regional Airport",
    "city": "Geraldton",
    "state_prov": "Ontario",
    "lat": 49.778301239,
    "lon": -86.9393997192
},
"CYGR": {
    "iata": "YGR",
    "name": "Iles-de-la-Madeleine Airport",
    "city": "Iles-de-la-Madeleine",
    "state_prov": "Quebec",
    "lat": 47.4247016907,
    "lon": -61.7780990601
},
"CYGT": {
    "iata": "YGT",
    "name": "Igloolik Airport",
    "city": "Igloolik",
    "state_prov": "Nunavut",
    "lat": 69.3647003174,
    "lon": -81.8161010742
},
"CYGV": {
    "iata": "YGV",
    "name": "Havre St Pierre Airport",
    "city": "Havre St-Pierre",
    "state_prov": "Quebec",
    "lat": 50.2818984985,
    "lon": -63.6114006042
},
"CYGW": {
    "iata": "YGW",
    "name": "Kuujjuarapik Airport",
    "city": "Kuujjuarapik",
    "state_prov": "Quebec",
    "lat": 55.2818984985,
    "lon": -77.765296936
},
"CYGZ": {
    "iata": "YGZ",
    "name": "Grise Fiord Airport",
    "city": "Grise Fiord",
    "state_prov": "Nunavut",
    "lat": 76.4261016846,
    "lon": -82.9092025757
},
"CYHA": {
    "iata": "YQC",
    "name": "Quaqtaq Airport",
    "city": "Quaqtaq",
    "state_prov": "Quebec",
    "lat": 61.0463981628,
    "lon": -69.6177978516
},
"CYHB": {
    "iata": "YHB",
    "name": "Hudson Bay Airport",
    "city": "Hudson Bay",
    "state_prov": "Saskatchewan",
    "lat": 52.8166999817,
    "lon": -102.3109970093
},
"CYHD": {
    "iata": "YHD",
    "name": "Dryden Regional Airport",
    "city": "Dryden",
    "state_prov": "Ontario",
    "lat": 49.8316993713,
    "lon": -92.7442016602
},
"CYHF": {
    "iata": "YHF",
    "name": "Hearst Rene Fontaine Municipal Airport",
    "city": "Hearst",
    "state_prov": "Ontario",
    "lat": 49.7141990662,
    "lon": -83.6860961914
},
"CYHH": {
    "iata": "YNS",
    "name": "Nemiscau Airport",
    "city": "Nemiscau",
    "state_prov": "Quebec",
    "lat": 51.6911010742,
    "lon": -76.135597229
},
"CYHI": {
    "iata": "YHI",
    "name": "Ulukhaktok Holman Airport",
    "city": "Ulukhaktok",
    "state_prov": "Northwest Territories",
    "lat": 70.762802124,
    "lon": -117.8059997559
},
"CYHK": {
    "iata": "YHK",
    "name": "Gjoa Haven Airport",
    "city": "Gjoa Haven",
    "state_prov": "Nunavut",
    "lat": 68.635597229,
    "lon": -95.8497009277
},
"CYHM": {
    "iata": "YHM",
    "name": "John C. Munro Hamilton International Airport",
    "city": "Hamilton",
    "state_prov": "Ontario",
    "lat": 43.1735992432,
    "lon": -79.9349975586
},
"CYHN": {
    "iata": "YHN",
    "name": "Hornepayne Municipal Airport",
    "city": "Hornepayne",
    "state_prov": "Ontario",
    "lat": 49.1930999756,
    "lon": -84.7589035034
},
"CYHO": {
    "iata": "YHO",
    "name": "Hopedale Airport",
    "city": "Hopedale",
    "state_prov": "Newfoundland and Labrador",
    "lat": 55.448299408,
    "lon": -60.2285995483
},
"CYHR": {
    "iata": "YHR",
    "name": "Chevery Airport",
    "city": "Chevery",
    "state_prov": "Quebec",
    "lat": 50.4688987732,
    "lon": -59.6366996765
},
"CYHS": {
    "iata": "",
    "name": "Hanover / Saugeen Municipal Airport",
    "city": "Hanover",
    "state_prov": "Ontario",
    "lat": 44.1582984924,
    "lon": -81.0627975464
},
"CYHT": {
    "iata": "YHT",
    "name": "Haines Junction Airport",
    "city": "Haines Junction",
    "state_prov": "Yukon",
    "lat": 60.7891998291,
    "lon": -137.546005249
},
"CYHY": {
    "iata": "YHY",
    "name": "Hay River / Merlyn Carter Airport",
    "city": "Hay River",
    "state_prov": "Northwest Territories",
    "lat": 60.8396987915,
    "lon": -115.782997131
},
"CYHZ": {
    "iata": "YHZ",
    "name": "Halifax / Stanfield International Airport",
    "city": "Halifax",
    "state_prov": "Nova Scotia",
    "lat": 44.8807983398,
    "lon": -63.5085983276
},
"CYIB": {
    "iata": "YIB",
    "name": "Atikokan Municipal Airport",
    "city": "Atikokan",
    "state_prov": "Ontario",
    "lat": 48.7738990784,
    "lon": -91.6386032104
},
"CYID": {
    "iata": "YDG",
    "name": "Digby / Annapolis Regional Airport",
    "city": "Digby",
    "state_prov": "Nova Scotia",
    "lat": 44.5458450365,
    "lon": -65.7854247093
},
"CYIF": {
    "iata": "YIF",
    "name": "St Augustin Airport",
    "city": "St-Augustin",
    "state_prov": "Quebec",
    "lat": 51.2117004395,
    "lon": -58.6582984924
},
"CYIK": {
    "iata": "YIK",
    "name": "Ivujivik Airport",
    "city": "Ivujivik",
    "state_prov": "Quebec",
    "lat": 62.417301178,
    "lon": -77.9253005981
},
"CYIO": {
    "iata": "YIO",
    "name": "Pond Inlet Airport",
    "city": "Pond Inlet",
    "state_prov": "Nunavut",
    "lat": 72.6832962036,
    "lon": -77.9666976929
},
"CYIV": {
    "iata": "YIV",
    "name": "Island Lake Airport",
    "city": "Island Lake",
    "state_prov": "Manitoba",
    "lat": 53.8572006226,
    "lon": -94.6536026001
},
"CYJA": {
    "iata": "YJA",
    "name": "Jasper Airport",
    "city": "Jasper",
    "state_prov": "Alberta",
    "lat": 52.9967002869,
    "lon": -118.0589981079
},
"CYJF": {
    "iata": "YJF",
    "name": "Fort Liard Airport",
    "city": "Fort Liard",
    "state_prov": "Northwest Territories",
    "lat": 60.2358016968,
    "lon": -123.46900177
},
"CYJM": {
    "iata": "",
    "name": "Fort St James Airport",
    "city": "Fort St. James",
    "state_prov": "British Columbia",
    "lat": 54.3972015381,
    "lon": -124.2630004883
},
"CYJP": {
    "iata": "",
    "name": "Fort Providence Airport",
    "city": "Fort Providence",
    "state_prov": "Northwest Territories",
    "lat": 61.3194007874,
    "lon": -117.6060028076
},
"CYJQ": {
    "iata": "",
    "name": "Denny Island Airport",
    "city": "Bella Bella",
    "state_prov": "British Columbia",
    "lat": 52.1397018433,
    "lon": -128.063995361
},
"CYJT": {
    "iata": "YJT",
    "name": "Stephenville Airport",
    "city": "Stephenville",
    "state_prov": "Newfoundland and Labrador",
    "lat": 48.5442008972,
    "lon": -58.5499992371
},
"CYKA": {
    "iata": "YKA",
    "name": "Kamloops Airport",
    "city": "Kamloops",
    "state_prov": "British Columbia",
    "lat": 50.7022018433,
    "lon": -120.4440002441
},
"CYKC": {
    "iata": "YKC",
    "name": "Collins Bay Airport",
    "city": "Collins Bay",
    "state_prov": "Saskatchewan",
    "lat": 58.2360992432,
    "lon": -103.6780014038
},
"CYKD": {
    "iata": "LAK",
    "name": "Aklavik Airport",
    "city": "Aklavik",
    "state_prov": "Northwest Territories",
    "lat": 68.2232971191,
    "lon": -135.0059967041
},
"CYKF": {
    "iata": "YKF",
    "name": "Waterloo Airport",
    "city": "Kitchener",
    "state_prov": "Ontario",
    "lat": 43.4608001709,
    "lon": -80.3786010742
},
"CYKG": {
    "iata": "YWB",
    "name": "Kangiqsujuaq (Wakeham Bay) Airport",
    "city": "Kangiqsujuaq",
    "state_prov": "Quebec",
    "lat": 61.5886001587,
    "lon": -71.929397583
},
"CYKJ": {
    "iata": "YKJ",
    "name": "Key Lake Airport",
    "city": "Key Lake",
    "state_prov": "Saskatchewan",
    "lat": 57.2560997009,
    "lon": -105.6179962158
},
"CYKL": {
    "iata": "YKL",
    "name": "Schefferville Airport",
    "city": "Schefferville",
    "state_prov": "Quebec",
    "lat": 54.8053016663,
    "lon": -66.8052978516
},
"CYKO": {
    "iata": "AKV",
    "name": "Akulivik Airport",
    "city": "Akulivik",
    "state_prov": "Quebec",
    "lat": 60.8185997009,
    "lon": -78.1485977173
},
"CYKQ": {
    "iata": "YKQ",
    "name": "Waskaganish Airport",
    "city": "Waskaganish",
    "state_prov": "Quebec",
    "lat": 51.4733009338,
    "lon": -78.7583007813
},
"CYKX": {
    "iata": "YKX",
    "name": "Kirkland Lake Airport",
    "city": "Kirkland Lake",
    "state_prov": "Ontario",
    "lat": 48.2103004456,
    "lon": -79.9813995361
},
"CYKY": {
    "iata": "YKY",
    "name": "Kindersley Airport",
    "city": "Kindersley",
    "state_prov": "Saskatchewan",
    "lat": 51.5175018311,
    "lon": -109.180999756
},
"CYLA": {
    "iata": "YPJ",
    "name": "Aupaluk Airport",
    "city": "Aupaluk",
    "state_prov": "Quebec",
    "lat": 59.2966995239,
    "lon": -69.5997009277
},
"CYLB": {
    "iata": "YLB",
    "name": "Lac La Biche Airport",
    "city": "Lac La Biche",
    "state_prov": "Alberta",
    "lat": 54.7703018188,
    "lon": -112.0319976807
},
"CYLC": {
    "iata": "YLC",
    "name": "Kimmirut Airport",
    "city": "Kimmirut",
    "state_prov": "Nunavut",
    "lat": 62.8499984741,
    "lon": -69.8833007812
},
"CYLD": {
    "iata": "YLD",
    "name": "Chapleau Airport",
    "city": "Chapleau",
    "state_prov": "Ontario",
    "lat": 47.8199996948,
    "lon": -83.3467025757
},
"CYLH": {
    "iata": "YLH",
    "name": "Lansdowne House Airport",
    "city": "Lansdowne House",
    "state_prov": "Ontario",
    "lat": 52.1955986023,
    "lon": -87.9341964722
},
"CYLI": {
    "iata": "",
    "name": "Lillooet Airport",
    "city": "Lillooet",
    "state_prov": "British Columbia",
    "lat": 50.6747016907,
    "lon": -121.893997192
},
"CYLJ": {
    "iata": "YLJ",
    "name": "Meadow Lake Airport",
    "city": "Meadow Lake",
    "state_prov": "Saskatchewan",
    "lat": 54.1253013611,
    "lon": -108.5230026245
},
"CYLK": {
    "iata": "YSG",
    "name": "Lutselk'e Airport",
    "city": "Lutselk'e",
    "state_prov": "Northwest Territories",
    "lat": 62.4183006287,
    "lon": -110.6819992065
},
"CYLL": {
    "iata": "YLL",
    "name": "Lloydminster Airport",
    "city": "Lloydminster",
    "state_prov": "Saskatchewan",
    "lat": 53.3092002869,
    "lon": -110.0729980469
},
"CYLQ": {
    "iata": "YLQ",
    "name": "La Tuque Airport",
    "city": "La Tuque",
    "state_prov": "Quebec",
    "lat": 47.4096984863,
    "lon": -72.7889022827
},
"CYLR": {
    "iata": "YLR",
    "name": "Leaf Rapids Airport",
    "city": "Leaf Rapids",
    "state_prov": "Manitoba",
    "lat": 56.5133018494,
    "lon": -99.9852981567
},
"CYLS": {
    "iata": "YLK",
    "name": "Barrie-Orillia (Lake Simcoe Regional Airport)",
    "city": "Barrie-Orillia",
    "state_prov": "Ontario",
    "lat": 44.4852981567,
    "lon": -79.5556030273
},
"CYLT": {
    "iata": "YLT",
    "name": "Alert Airport",
    "city": "Alert",
    "state_prov": "Nunavut",
    "lat": 82.5177993774,
    "lon": -62.2806015015
},
"CYLU": {
    "iata": "XGR",
    "name": "Kangiqsualujjuaq (Georges River) Airport",
    "city": "Kangiqsualujjuaq",
    "state_prov": "Quebec",
    "lat": 58.7113990784,
    "lon": -65.9927978516
},
"CYLW": {
    "iata": "YLW",
    "name": "Kelowna Airport",
    "city": "Kelowna",
    "state_prov": "British Columbia",
    "lat": 49.9561004639,
    "lon": -119.3779983521
},
"CYMA": {
    "iata": "YMA",
    "name": "Mayo Airport",
    "city": "Mayo",
    "state_prov": "Yukon",
    "lat": 63.6164016724,
    "lon": -135.8679962158
},
"CYME": {
    "iata": "YME",
    "name": "Matane Airport",
    "city": "Matane",
    "state_prov": "Quebec",
    "lat": 48.8568992615,
    "lon": -67.4533004761
},
"CYMG": {
    "iata": "YMG",
    "name": "Manitouwadge Airport",
    "city": "Manitouwadge",
    "state_prov": "Ontario",
    "lat": 49.0839004517,
    "lon": -85.8606033325
},
"CYMH": {
    "iata": "YMH",
    "name": "Mary's Harbour Airport",
    "city": "Mary's Harbour",
    "state_prov": "Newfoundland and Labrador",
    "lat": 52.3027992249,
    "lon": -55.8471984863
},
"CYML": {
    "iata": "YML",
    "name": "Charlevoix Airport",
    "city": "Charlevoix",
    "state_prov": "Quebec",
    "lat": 47.5974998474,
    "lon": -70.2238998413
},
"CYMM": {
    "iata": "YMM",
    "name": "Fort McMurray Airport",
    "city": "Fort McMurray",
    "state_prov": "Alberta",
    "lat": 56.653301239,
    "lon": -111.222000122
},
"CYMO": {
    "iata": "YMO",
    "name": "Moosonee Airport",
    "city": "Moosonee",
    "state_prov": "Ontario",
    "lat": 51.2910995483,
    "lon": -80.6078033447
},
"CYMT": {
    "iata": "YMT",
    "name": "Chapais Airport",
    "city": "Chibougamau",
    "state_prov": "Quebec",
    "lat": 49.771900177,
    "lon": -74.5280990601
},
"CYMU": {
    "iata": "YUD",
    "name": "Umiujaq Airport",
    "city": "Umiujaq",
    "state_prov": "Quebec",
    "lat": 56.5360984802,
    "lon": -76.5183029175
},
"CYMW": {
    "iata": "YMW",
    "name": "Maniwaki Airport",
    "city": "Maniwaki",
    "state_prov": "Quebec",
    "lat": 46.2728004456,
    "lon": -75.9906005859
},
"CYMY": {
    "iata": "",
    "name": "Ear Falls Airport",
    "city": "Ear Falls",
    "state_prov": "Ontario",
    "lat": 50.7178001404,
    "lon": -93.3835983276
},
"CYNA": {
    "iata": "YNA",
    "name": "Natashquan Airport",
    "city": "Natashquan",
    "state_prov": "Quebec",
    "lat": 50.1899986267,
    "lon": -61.7891998291
},
"CYNC": {
    "iata": "YNC",
    "name": "Wemindji Airport",
    "city": "Wemindji",
    "state_prov": "Quebec",
    "lat": 53.0106010437,
    "lon": -78.8311004639
},
"CYNE": {
    "iata": "YNE",
    "name": "Norway House Airport",
    "city": "Norway House",
    "state_prov": "Manitoba",
    "lat": 53.9583015442,
    "lon": -97.8442001343
},
"CYNH": {
    "iata": "YNH",
    "name": "Hudsons Hope Airport",
    "city": "Hudson's Hope",
    "state_prov": "British Columbia",
    "lat": 56.0355987549,
    "lon": -121.9759979248
},
"CYNL": {
    "iata": "YNL",
    "name": "Points North Landing Airport",
    "city": "Points North Landing",
    "state_prov": "Saskatchewan",
    "lat": 58.2766990662,
    "lon": -104.0820007324
},
"CYNM": {
    "iata": "YNM",
    "name": "Matagami Airport",
    "city": "Matagami",
    "state_prov": "Quebec",
    "lat": 49.7616996765,
    "lon": -77.8028030396
},
"CYNN": {
    "iata": "YNN",
    "name": "Nejanilini Lake Airport",
    "city": "Nejanilini Lake",
    "state_prov": "Manitoba",
    "lat": 59.4874992371,
    "lon": -97.7802963257
},
"CYNR": {
    "iata": "HZP",
    "name": "Fort Mackay / Horizon Airport",
    "city": "Fort Mackay",
    "state_prov": "Alberta",
    "lat": 57.3816986084,
    "lon": -111.700996399
},
"CYOA": {
    "iata": "YOA",
    "name": "Ekati Airport",
    "city": "Ekati",
    "state_prov": "Northwest Territories",
    "lat": 64.6988983154,
    "lon": -110.614997864
},
"CYOC": {
    "iata": "YOC",
    "name": "Old Crow Airport",
    "city": "Old Crow",
    "state_prov": "Yukon",
    "lat": 67.570602417,
    "lon": -139.8390045166
},
"CYOD": {
    "iata": "YOD",
    "name": "CFB Cold Lake",
    "city": "Cold Lake",
    "state_prov": "Alberta",
    "lat": 54.4049987793,
    "lon": -110.2789993286
},
"CYOH": {
    "iata": "YOH",
    "name": "Oxford House Airport",
    "city": "Oxford House",
    "state_prov": "Manitoba",
    "lat": 54.9333000183,
    "lon": -95.2789001465
},
"CYOJ": {
    "iata": "YOJ",
    "name": "High Level Airport",
    "city": "High Level",
    "state_prov": "Alberta",
    "lat": 58.6213989258,
    "lon": -117.1650009155
},
"CYOP": {
    "iata": "YOP",
    "name": "Rainbow Lake Airport",
    "city": "Rainbow Lake",
    "state_prov": "Alberta",
    "lat": 58.4914016724,
    "lon": -119.4079971313
},
"CYOS": {
    "iata": "YOS",
    "name": "Owen Sound / Billy Bishop Regional Airport",
    "city": "Owen Sound",
    "state_prov": "Ontario",
    "lat": 44.5903015137,
    "lon": -80.8375015259
},
"CYOW": {
    "iata": "YOW",
    "name": "Ottawa Macdonald-Cartier International Airport",
    "city": "Ottawa",
    "state_prov": "Ontario",
    "lat": 45.3224983215,
    "lon": -75.6691970825
},
"CYPA": {
    "iata": "YPA",
    "name": "Prince Albert Glass Field",
    "city": "Prince Albert",
    "state_prov": "Saskatchewan",
    "lat": 53.2141990662,
    "lon": -105.672996521
},
"CYPC": {
    "iata": "YPC",
    "name": "Paulatuk (Nora Aliqatchialuk Ruben) Airport",
    "city": "Paulatuk",
    "state_prov": "Northwest Territories",
    "lat": 69.3608381154,
    "lon": -124.075469971
},
"CYPD": {
    "iata": "YPS",
    "name": "Port Hawkesbury Airport",
    "city": "Port Hawkesbury",
    "state_prov": "Nova Scotia",
    "lat": 45.6567001343,
    "lon": -61.3680992126
},
"CYPE": {
    "iata": "YPE",
    "name": "Peace River Airport",
    "city": "Peace River",
    "state_prov": "Alberta",
    "lat": 56.2268981934,
    "lon": -117.4469985962
},
"CYPH": {
    "iata": "YPH",
    "name": "Inukjuak Airport",
    "city": "Inukjuak",
    "state_prov": "Quebec",
    "lat": 58.4719009399,
    "lon": -78.0768966675
},
"CYPL": {
    "iata": "YPL",
    "name": "Pickle Lake Airport",
    "city": "Pickle Lake",
    "state_prov": "Ontario",
    "lat": 51.4463996887,
    "lon": -90.2142028809
},
"CYPM": {
    "iata": "YPM",
    "name": "Pikangikum Airport",
    "city": "Pikangikum",
    "state_prov": "Ontario",
    "lat": 51.8196983337,
    "lon": -93.9732971191
},
"CYPN": {
    "iata": "YPN",
    "name": "Port Menier Airport",
    "city": "Port-Menier",
    "state_prov": "Quebec",
    "lat": 49.8363990784,
    "lon": -64.2885971069
},
"CYPO": {
    "iata": "YPO",
    "name": "Peawanuck Airport",
    "city": "Peawanuck",
    "state_prov": "Ontario",
    "lat": 54.9880981445,
    "lon": -85.4432983398
},
"CYPP": {
    "iata": "",
    "name": "Parent Airport",
    "city": "Parent",
    "state_prov": "Quebec",
    "lat": 47.9319000244,
    "lon": -74.6081008911
},
"CYPQ": {
    "iata": "YPQ",
    "name": "Peterborough Airport",
    "city": "Peterborough",
    "state_prov": "Ontario",
    "lat": 44.2299995422,
    "lon": -78.3632965088
},
"CYPR": {
    "iata": "YPR",
    "name": "Prince Rupert Airport",
    "city": "Prince Rupert",
    "state_prov": "British Columbia",
    "lat": 54.2860984802,
    "lon": -130.4450073242
},
"CYPS": {
    "iata": "",
    "name": "Pemberton Airport",
    "city": "Pemberton",
    "state_prov": "British Columbia",
    "lat": 50.3025016785,
    "lon": -122.7379989624
},
"CYPT": {
    "iata": "",
    "name": "Pelee Island Airport",
    "city": "Pelee Island",
    "state_prov": "Ontario",
    "lat": 41.7803993225,
    "lon": -82.6780014038
},
"CYPU": {
    "iata": "",
    "name": "Puntzi Mountain Airport",
    "city": "Puntzi Mountain",
    "state_prov": "British Columbia",
    "lat": 52.1128005981,
    "lon": -124.1449966431
},
"CYPW": {
    "iata": "YPW",
    "name": "Powell River Airport",
    "city": "Powell River",
    "state_prov": "British Columbia",
    "lat": 49.8342018127,
    "lon": -124.5
},
"CYPX": {
    "iata": "YPX",
    "name": "Puvirnituq Airport",
    "city": "Puvirnituq",
    "state_prov": "Quebec",
    "lat": 60.0505981445,
    "lon": -77.2869033813
},
"CYPY": {
    "iata": "YPY",
    "name": "Fort Chipewyan Airport",
    "city": "Fort Chipewyan",
    "state_prov": "Alberta",
    "lat": 58.76720047,
    "lon": -111.1169967651
},
"CYPZ": {
    "iata": "YPZ",
    "name": "Burns Lake Airport",
    "city": "Burns Lake",
    "state_prov": "British Columbia",
    "lat": 54.3763999939,
    "lon": -125.9509963989
},
"CYQA": {
    "iata": "YQA",
    "name": "Muskoka Airport",
    "city": "Muskoka",
    "state_prov": "Ontario",
    "lat": 44.9747009277,
    "lon": -79.3032989502
},
"CYQB": {
    "iata": "YQB",
    "name": "Quebec Jean Lesage International Airport",
    "city": "Quebec",
    "state_prov": "Quebec",
    "lat": 46.7910995483,
    "lon": -71.3933029175
},
"CYQD": {
    "iata": "YQD",
    "name": "The Pas Airport",
    "city": "The Pas",
    "state_prov": "Manitoba",
    "lat": 53.9714012146,
    "lon": -101.091003418
},
"CYQF": {
    "iata": "YQF",
    "name": "Red Deer Regional Airport",
    "city": "Red Deer",
    "state_prov": "Alberta",
    "lat": 52.1822013855,
    "lon": -113.8939971924
},
"CYQG": {
    "iata": "YQG",
    "name": "Windsor Airport",
    "city": "Windsor",
    "state_prov": "Ontario",
    "lat": 42.2756004333,
    "lon": -82.9555969238
},
"CYQH": {
    "iata": "YQH",
    "name": "Watson Lake Airport",
    "city": "Watson Lake",
    "state_prov": "Yukon",
    "lat": 60.1164016724,
    "lon": -128.8220062256
},
"CYQI": {
    "iata": "YQI",
    "name": "Yarmouth Airport",
    "city": "Yarmouth",
    "state_prov": "Nova Scotia",
    "lat": 43.8269004822,
    "lon": -66.0880966187
},
"CYQK": {
    "iata": "YQK",
    "name": "Kenora Airport",
    "city": "Kenora",
    "state_prov": "Ontario",
    "lat": 49.7882995605,
    "lon": -94.3630981445
},
"CYQL": {
    "iata": "YQL",
    "name": "Lethbridge County Airport",
    "city": "Lethbridge",
    "state_prov": "Alberta",
    "lat": 49.6302986145,
    "lon": -112.800003052
},
"CYQM": {
    "iata": "YQM",
    "name": "Greater Moncton International Airport",
    "city": "Moncton",
    "state_prov": "New Brunswick",
    "lat": 46.1122016907,
    "lon": -64.6785964966
},
"CYQN": {
    "iata": "YQN",
    "name": "Nakina Airport",
    "city": "Nakina",
    "state_prov": "Ontario",
    "lat": 50.182800293,
    "lon": -86.6964035034
},
"CYQQ": {
    "iata": "YQQ",
    "name": "Comox Airport",
    "city": "Comox",
    "state_prov": "British Columbia",
    "lat": 49.7108001709,
    "lon": -124.8870010376
},
"CYQR": {
    "iata": "YQR",
    "name": "Regina International Airport",
    "city": "Regina",
    "state_prov": "Saskatchewan",
    "lat": 50.4319000244,
    "lon": -104.6660003662
},
"CYQT": {
    "iata": "YQT",
    "name": "Thunder Bay Airport",
    "city": "Thunder Bay",
    "state_prov": "Ontario",
    "lat": 48.3718986511,
    "lon": -89.3238983154
},
"CYQU": {
    "iata": "YQU",
    "name": "Grande Prairie Airport",
    "city": "Grande Prairie",
    "state_prov": "Alberta",
    "lat": 55.1796989441,
    "lon": -118.885002136
},
"CYQV": {
    "iata": "YQV",
    "name": "Yorkton Municipal Airport",
    "city": "Yorkton",
    "state_prov": "Saskatchewan",
    "lat": 51.2647018433,
    "lon": -102.4619979858
},
"CYQW": {
    "iata": "YQW",
    "name": "North Battleford Airport",
    "city": "North Battleford",
    "state_prov": "Saskatchewan",
    "lat": 52.7691993713,
    "lon": -108.2440032959
},
"CYQX": {
    "iata": "YQX",
    "name": "Gander International Airport",
    "city": "Gander",
    "state_prov": "Newfoundland and Labrador",
    "lat": 48.9369010925,
    "lon": -54.5680999756
},
"CYQY": {
    "iata": "YQY",
    "name": "Sydney / J.A. Douglas McCurdy Airport",
    "city": "Sydney",
    "state_prov": "Nova Scotia",
    "lat": 46.1613998413,
    "lon": -60.0477981567
},
"CYQZ": {
    "iata": "YQZ",
    "name": "Quesnel Airport",
    "city": "Quesnel",
    "state_prov": "British Columbia",
    "lat": 53.0261001587,
    "lon": -122.5100021362
},
"CYRA": {
    "iata": "YRA",
    "name": "Rae Lakes Airport",
    "city": "Gameti",
    "state_prov": "Northwest Territories",
    "lat": 64.1160964966,
    "lon": -117.3099975586
},
"CYRB": {
    "iata": "YRB",
    "name": "Resolute Bay Airport",
    "city": "Resolute Bay",
    "state_prov": "Nunavut",
    "lat": 74.7169036865,
    "lon": -94.9693984985
},
"CYRC": {
    "iata": "",
    "name": "Chicoutimi St Honore Airport",
    "city": "Chicoutimi",
    "state_prov": "Quebec",
    "lat": 48.5208015442,
    "lon": -71.0505981445
},
"CYRI": {
    "iata": "YRI",
    "name": "Riviere-du-Loup Airport",
    "city": "Riviere-du-Loup",
    "state_prov": "Quebec",
    "lat": 47.7644004822,
    "lon": -69.5847015381
},
"CYRJ": {
    "iata": "YRJ",
    "name": "Roberval Airport",
    "city": "Roberval",
    "state_prov": "Quebec",
    "lat": 48.5200004578,
    "lon": -72.2656021118
},
"CYRL": {
    "iata": "YRL",
    "name": "Red Lake Airport",
    "city": "Red Lake",
    "state_prov": "Ontario",
    "lat": 51.0668983459,
    "lon": -93.7930984497
},
"CYRM": {
    "iata": "YRM",
    "name": "Rocky Mountain House Airport",
    "city": "Rocky Mountain House",
    "state_prov": "Alberta",
    "lat": 52.4296989441,
    "lon": -114.9039993286
},
"CYRQ": {
    "iata": "YRQ",
    "name": "Trois-Rivieres Airport",
    "city": "Trois-Rivieres",
    "state_prov": "Quebec",
    "lat": 46.3527984619,
    "lon": -72.679397583
},
"CYRS": {
    "iata": "YRS",
    "name": "Red Sucker Lake Airport",
    "city": "Red Sucker Lake",
    "state_prov": "Manitoba",
    "lat": 54.1671981812,
    "lon": -93.5571975708
},
"CYRT": {
    "iata": "YRT",
    "name": "Rankin Inlet Airport",
    "city": "Rankin Inlet",
    "state_prov": "Nunavut",
    "lat": 62.8114013672,
    "lon": -92.1157989502
},
"CYRV": {
    "iata": "YRV",
    "name": "Revelstoke Airport",
    "city": "Revelstoke",
    "state_prov": "British Columbia",
    "lat": 50.9667015076,
    "lon": -118.182998657
},
"CYSB": {
    "iata": "YSB",
    "name": "Sudbury Airport",
    "city": "Sudbury",
    "state_prov": "Ontario",
    "lat": 46.625,
    "lon": -80.7988967896
},
"CYSC": {
    "iata": "YSC",
    "name": "Sherbrooke Airport",
    "city": "Sherbrooke",
    "state_prov": "Quebec",
    "lat": 45.4385986328,
    "lon": -71.6913986206
},
"CYSE": {
    "iata": "YSE",
    "name": "Squamish Airport",
    "city": "Squamish",
    "state_prov": "British Columbia",
    "lat": 49.7817001343,
    "lon": -123.1620025635
},
"CYSF": {
    "iata": "YSF",
    "name": "Stony Rapids Airport",
    "city": "Stony Rapids",
    "state_prov": "Saskatchewan",
    "lat": 59.2503013611,
    "lon": -105.841003418
},
"CYSG": {
    "iata": "",
    "name": "St Georges Airport",
    "city": "St Georges",
    "state_prov": "Quebec",
    "lat": 46.0964012146,
    "lon": -70.7146987915
},
"CYSJ": {
    "iata": "YSJ",
    "name": "Saint John Airport",
    "city": "Saint John",
    "state_prov": "New Brunswick",
    "lat": 45.3161010742,
    "lon": -65.890296936
},
"CYSK": {
    "iata": "YSK",
    "name": "Sanikiluaq Airport",
    "city": "Sanikiluaq",
    "state_prov": "Nunavut",
    "lat": 56.5377998352,
    "lon": -79.2466964722
},
"CYSL": {
    "iata": "YSL",
    "name": "St Leonard Airport",
    "city": "St Leonard",
    "state_prov": "New Brunswick",
    "lat": 47.1575012207,
    "lon": -67.8347015381
},
"CYSM": {
    "iata": "YSM",
    "name": "Fort Smith Airport",
    "city": "Fort Smith",
    "state_prov": "Northwest Territories",
    "lat": 60.0203018188,
    "lon": -111.9619979858
},
"CYSP": {
    "iata": "YSP",
    "name": "Marathon Airport",
    "city": "Marathon",
    "state_prov": "Ontario",
    "lat": 48.7552986145,
    "lon": -86.3443984985
},
"CYSQ": {
    "iata": "",
    "name": "Atlin Airport",
    "city": "Atlin",
    "state_prov": "British Columbia",
    "lat": 59.5766983032,
    "lon": -133.6690063477
},
"CYST": {
    "iata": "YST",
    "name": "St. Theresa Point Airport",
    "city": "St. Theresa Point",
    "state_prov": "Manitoba",
    "lat": 53.8456001282,
    "lon": -94.8518981934
},
"CYSW": {
    "iata": "",
    "name": "Sparwood Elk Valley Airport",
    "city": "Sparwood",
    "state_prov": "British Columbia",
    "lat": 49.8333015442,
    "lon": -114.8830032349
},
"CYSY": {
    "iata": "YSY",
    "name": "Sachs Harbour (David Nasogaluak Jr. Saaryuaq) Airport",
    "city": "Sachs Harbour",
    "state_prov": "Northwest Territories",
    "lat": 71.9938964844,
    "lon": -125.242996216
},
"CYSZ": {
    "iata": "",
    "name": "Ste Anne Des Monts Airport",
    "city": "Ste-Anne-Des-Monts",
    "state_prov": "Quebec",
    "lat": 49.120300293,
    "lon": -66.5291976929
},
"CYTA": {
    "iata": "YTA",
    "name": "Pembroke Airport",
    "city": "Pembroke",
    "state_prov": "Ontario",
    "lat": 45.8643989563,
    "lon": -77.251701355
},
"CYTE": {
    "iata": "YTE",
    "name": "Cape Dorset Airport",
    "city": "Cape Dorset",
    "state_prov": "Nunavut",
    "lat": 64.2300033569,
    "lon": -76.5267028809
},
"CYTF": {
    "iata": "YTF",
    "name": "Alma Airport",
    "city": "Alma",
    "state_prov": "Quebec",
    "lat": 48.5088996887,
    "lon": -71.6418991089
},
"CYTH": {
    "iata": "YTH",
    "name": "Thompson Airport",
    "city": "Thompson",
    "state_prov": "Manitoba",
    "lat": 55.8011016846,
    "lon": -97.8641967773
},
"CYTL": {
    "iata": "YTL",
    "name": "Big Trout Lake Airport",
    "city": "Big Trout Lake",
    "state_prov": "Ontario",
    "lat": 53.8177986145,
    "lon": -89.8968963623
},
"CYTN": {
    "iata": "",
    "name": "Trenton Airport",
    "city": "Trenton",
    "state_prov": "Nova Scotia",
    "lat": 45.6119003296,
    "lon": -62.6211013794
},
"CYTQ": {
    "iata": "YTQ",
    "name": "Tasiujaq Airport",
    "city": "Tasiujaq",
    "state_prov": "Quebec",
    "lat": 58.6678009033,
    "lon": -69.9558029175
},
"CYTR": {
    "iata": "YTR",
    "name": "CFB Trenton",
    "city": "Trenton",
    "state_prov": "Ontario",
    "lat": 44.1189002991,
    "lon": -77.5280990601
},
"CYTS": {
    "iata": "YTS",
    "name": "Timmins/Victor M. Power",
    "city": "Timmins",
    "state_prov": "Ontario",
    "lat": 48.5696983337,
    "lon": -81.376701355
},
"CYTZ": {
    "iata": "YTZ",
    "name": "Billy Bishop Toronto City Centre Airport",
    "city": "Toronto",
    "state_prov": "Ontario",
    "lat": 43.6274986267,
    "lon": -79.3962020874
},
"CYUB": {
    "iata": "YUB",
    "name": "Tuktoyaktuk Airport",
    "city": "Tuktoyaktuk",
    "state_prov": "Northwest Territories",
    "lat": 69.4332962036,
    "lon": -133.0260009766
},
"CYUL": {
    "iata": "YUL",
    "name": "Montreal / Pierre Elliott Trudeau International Airport",
    "city": "Montreal",
    "state_prov": "Quebec",
    "lat": 45.4706001282,
    "lon": -73.7407989502
},
"CYUT": {
    "iata": "YUT",
    "name": "Repulse Bay Airport",
    "city": "Repulse Bay",
    "state_prov": "Nunavut",
    "lat": 66.5214004517,
    "lon": -86.2247009277
},
"CYUX": {
    "iata": "YUX",
    "name": "Hall Beach Airport",
    "city": "Hall Beach",
    "state_prov": "Nunavut",
    "lat": 68.7761001587,
    "lon": -81.243598938
},
"CYUY": {
    "iata": "YUY",
    "name": "Rouyn Noranda Airport",
    "city": "Rouyn-Noranda",
    "state_prov": "Quebec",
    "lat": 48.2061004639,
    "lon": -78.8356018066
},
"CYVB": {
    "iata": "YVB",
    "name": "Bonaventure Airport",
    "city": "Bonaventure",
    "state_prov": "Quebec",
    "lat": 48.0710983276,
    "lon": -65.4602966309
},
"CYVC": {
    "iata": "YVC",
    "name": "La Ronge Airport",
    "city": "La Ronge",
    "state_prov": "Saskatchewan",
    "lat": 55.1514015198,
    "lon": -105.2620010376
},
"CYVD": {
    "iata": "",
    "name": "Virden/R.J. (Bob) Andrew Field Regional Aerodrome",
    "city": "Virden",
    "state_prov": "Manitoba",
    "lat": 49.8782997131,
    "lon": -100.917999268
},
"CYVG": {
    "iata": "YVG",
    "name": "Vermilion Airport",
    "city": "Vermilion",
    "state_prov": "Alberta",
    "lat": 53.3558006287,
    "lon": -110.8239974976
},
"CYVM": {
    "iata": "YVM",
    "name": "Qikiqtarjuaq Airport",
    "city": "Qikiqtarjuaq",
    "state_prov": "Nunavut",
    "lat": 67.5457992554,
    "lon": -64.0314025879
},
"CYVO": {
    "iata": "YVO",
    "name": "Val-d'Or Airport",
    "city": "Val-d'Or",
    "state_prov": "Quebec",
    "lat": 48.0532989502,
    "lon": -77.7827987671
},
"CYVP": {
    "iata": "YVP",
    "name": "Kuujjuaq Airport",
    "city": "Kuujjuaq",
    "state_prov": "Quebec",
    "lat": 58.0960998535,
    "lon": -68.426902771
},
"CYVQ": {
    "iata": "YVQ",
    "name": "Norman Wells Airport",
    "city": "Norman Wells",
    "state_prov": "Northwest Territories",
    "lat": 65.2816009521,
    "lon": -126.797996521
},
"CYVT": {
    "iata": "YVT",
    "name": "Buffalo Narrows Airport",
    "city": "Buffalo Narrows",
    "state_prov": "Saskatchewan",
    "lat": 55.8418998718,
    "lon": -108.417999268
},
"CYVV": {
    "iata": "YVV",
    "name": "Wiarton Airport",
    "city": "Wiarton",
    "state_prov": "Ontario",
    "lat": 44.7458000183,
    "lon": -81.1072006226
},
"CYVZ": {
    "iata": "YVZ",
    "name": "Deer Lake Airport",
    "city": "Deer Lake",
    "state_prov": "Ontario",
    "lat": 52.6557998657,
    "lon": -94.0614013672
},
"CYWA": {
    "iata": "YWA",
    "name": "Petawawa Airport",
    "city": "Petawawa",
    "state_prov": "Ontario",
    "lat": 45.9522018433,
    "lon": -77.3191986084
},
"CYWE": {
    "iata": "YFJ",
    "name": "Wekweeti Airport",
    "city": "Wekweeti",
    "state_prov": "Northwest-Territories",
    "lat": 64.1908035278,
    "lon": -114.077003479
},
"CYWG": {
    "iata": "YWG",
    "name": "Winnipeg / James Armstrong Richardson International Airport",
    "city": "Winnipeg",
    "state_prov": "Manitoba",
    "lat": 49.9099998474,
    "lon": -97.2398986816
},
"CYWJ": {
    "iata": "YWJ",
    "name": "Deline Airport",
    "city": "Deline",
    "state_prov": "Northwest-Territories",
    "lat": 65.2110977173,
    "lon": -123.4359970093
},
"CYWK": {
    "iata": "YWK",
    "name": "Wabush Airport",
    "city": "Wabush",
    "state_prov": "Newfoundland-and-Labrador",
    "lat": 52.9219017029,
    "lon": -66.864402771
},
"CYWL": {
    "iata": "YWL",
    "name": "Williams Lake Airport",
    "city": "Williams Lake",
    "state_prov": "British-Columbia",
    "lat": 52.1831016541,
    "lon": -122.0540008545
},
"CYWM": {
    "iata": "",
    "name": "Athabasca Airport",
    "city": "Athabasca",
    "state_prov": "Alberta",
    "lat": 54.7430992126,
    "lon": -113.2050018311
},
"CYWP": {
    "iata": "YWP",
    "name": "Webequie Airport",
    "city": "Webequie",
    "state_prov": "Ontario",
    "lat": 52.9593933975,
    "lon": -87.3748683929
},
"CYWV": {
    "iata": "",
    "name": "Wainwright Airport",
    "city": "Wainwright",
    "state_prov": "Alberta",
    "lat": 52.7957992554,
    "lon": -110.8570022583
},
"CYWY": {
    "iata": "YWY",
    "name": "Wrigley Airport",
    "city": "Wrigley",
    "state_prov": "Northwest-Territories",
    "lat": 63.209400177,
    "lon": -123.43699646
},
"CYXC": {
    "iata": "YXC",
    "name": "Cranbrook Airport",
    "city": "Cranbrook",
    "state_prov": "British-Columbia",
    "lat": 49.6108016968,
    "lon": -115.7819976807
},
"CYXE": {
    "iata": "YXE",
    "name": "Saskatoon John G. Diefenbaker International Airport",
    "city": "Saskatoon",
    "state_prov": "Saskatchewan",
    "lat": 52.1707992554,
    "lon": -106.6999969482
},
"CYXH": {
    "iata": "YXH",
    "name": "Medicine Hat Airport",
    "city": "Medicine Hat",
    "state_prov": "Alberta",
    "lat": 50.018901825,
    "lon": -110.7210006714
},
"CYXJ": {
    "iata": "YXJ",
    "name": "Fort St John Airport",
    "city": "Fort St.John",
    "state_prov": "British-Columbia",
    "lat": 56.2380981445,
    "lon": -120.7399978638
},
"CYXK": {
    "iata": "YXK",
    "name": "Rimouski Airport",
    "city": "Rimouski",
    "state_prov": "Quebec",
    "lat": 48.478099823,
    "lon": -68.4969024658
},
"CYXL": {
    "iata": "YXL",
    "name": "Sioux Lookout Airport",
    "city": "Sioux Lookout",
    "state_prov": "Ontario",
    "lat": 50.113899231,
    "lon": -91.9052963257
},
"CYXN": {
    "iata": "YXN",
    "name": "Whale Cove Airport",
    "city": "Whale Cove",
    "state_prov": "Nunavut",
    "lat": 62.2400016785,
    "lon": -92.5980987549
},
"CYXP": {
    "iata": "YXP",
    "name": "Pangnirtung Airport",
    "city": "Pangnirtung",
    "state_prov": "Nunavut",
    "lat": 66.1449966431,
    "lon": -65.7136001587
},
"CYXQ": {
    "iata": "YXQ",
    "name": "Beaver Creek Airport",
    "city": "Beaver Creek",
    "state_prov": "Yukon",
    "lat": 62.4103012085,
    "lon": -140.8670043945
},
"CYXR": {
    "iata": "YXR",
    "name": "Earlton (Timiskaming Regional) Airport",
    "city": "Earlton",
    "state_prov": "Ontario",
    "lat": 47.6974006546,
    "lon": -79.8473453522
},
"CYXS": {
    "iata": "YXS",
    "name": "Prince George Airport",
    "city": "Prince George",
    "state_prov": "British-Columbia",
    "lat": 53.8894004822,
    "lon": -122.6790008545
},
"CYXT": {
    "iata": "YXT",
    "name": "Terrace Airport",
    "city": "Terrace",
    "state_prov": "British-Columbia",
    "lat": 54.46849823,
    "lon": -128.5760040283
},
"CYXU": {
    "iata": "YXU",
    "name": "London Airport",
    "city": "London",
    "state_prov": "Ontario",
    "lat": 43.0355987549,
    "lon": -81.1539001465
},
"CYXX": {
    "iata": "YXX",
    "name": "Abbotsford Airport",
    "city": "Abbotsford",
    "state_prov": "British-Columbia",
    "lat": 49.0252990723,
    "lon": -122.361000061
},
"CYXY": {
    "iata": "YXY",
    "name": "Whitehorse / Erik Nielsen International Airport",
    "city": "Whitehorse",
    "state_prov": "Yukon",
    "lat": 60.7095985413,
    "lon": -135.067001343
},
"CYXZ": {
    "iata": "YXZ",
    "name": "Wawa Airport",
    "city": "Wawa",
    "state_prov": "Ontario",
    "lat": 47.9667015076,
    "lon": -84.7866973877
},
"CYYB": {
    "iata": "YYB",
    "name": "North Bay Airport",
    "city": "North Bay",
    "state_prov": "Ontario",
    "lat": 46.3636016846,
    "lon": -79.4227981567
},
"CYYC": {
    "iata": "YYC",
    "name": "Calgary International Airport",
    "city": "Calgary",
    "state_prov": "Alberta",
    "lat": 51.113899231,
    "lon": -114.0199966431
},
"CYYD": {
    "iata": "YYD",
    "name": "Smithers Airport",
    "city": "Smithers",
    "state_prov": "British-Columbia",
    "lat": 54.8246994019,
    "lon": -127.1829986572
},
"CYYE": {
    "iata": "YYE",
    "name": "Fort Nelson Airport",
    "city": "Fort Nelson",
    "state_prov": "British-Columbia",
    "lat": 58.8363990784,
    "lon": -122.5970001221
},
"CYYG": {
    "iata": "YYG",
    "name": "Charlottetown Airport",
    "city": "Charlottetown",
    "state_prov": "Newfoundland-and-Labrador",
    "lat": 46.2900009155,
    "lon": -63.1211013794
},
"CYYH": {
    "iata": "YYH",
    "name": "Taloyoak Airport",
    "city": "Taloyoak",
    "state_prov": "Nunavut",
    "lat": 69.5466995239,
    "lon": -93.5766983032
},
"CYYJ": {
    "iata": "YYJ",
    "name": "Victoria International Airport",
    "city": "Victoria",
    "state_prov": "British-Columbia",
    "lat": 48.646900177,
    "lon": -123.4260025024
},
"CYYL": {
    "iata": "YYL",
    "name": "Lynn Lake Airport",
    "city": "Lynn Lake",
    "state_prov": "Manitoba",
    "lat": 56.863899231,
    "lon": -101.0759963989
},
"CYYM": {
    "iata": "YYM",
    "name": "Cowley Airport",
    "city": "Cowley",
    "state_prov": "Alberta",
    "lat": 49.6363983154,
    "lon": -114.09400177
},
"CYYN": {
    "iata": "YYN",
    "name": "Swift Current Airport",
    "city": "Swift Current",
    "state_prov": "Saskatchewan",
    "lat": 50.2919006348,
    "lon": -107.691001892
},
"CYYO": {
    "iata": "",
    "name": "Wynyard / W.B. Needham Field",
    "city": "Wynyard",
    "state_prov": "Saskatchewan",
    "lat": 51.8098883726,
    "lon": -104.169788361
},
"CYYQ": {
    "iata": "YYQ",
    "name": "Churchill Airport",
    "city": "Churchill",
    "state_prov": "Manitoba",
    "lat": 58.739200592,
    "lon": -94.0650024414
},
"CYYR": {
    "iata": "YYR",
    "name": "Goose Bay Airport",
    "city": "Goose Bay",
    "state_prov": "Newfoundland-and-Labrador",
    "lat": 53.3191986084,
    "lon": -60.4258003235
},
"CYYT": {
    "iata": "YYT",
    "name": "St. John's International Airport",
    "city": "St. John's",
    "state_prov": "Newfoundland-and-Labrador",
    "lat": 47.618598938,
    "lon": -52.7518997192
},
"CYYU": {
    "iata": "YYU",
    "name": "Kapuskasing Airport",
    "city": "Kapuskasing",
    "state_prov": "Ontario",
    "lat": 49.413898468,
    "lon": -82.4674987793
},
"CYYW": {
    "iata": "YYW",
    "name": "Armstrong Airport",
    "city": "Armstrong",
    "state_prov": "Ontario",
    "lat": 50.2902984619,
    "lon": -88.9096984863
},
"CYYY": {
    "iata": "YYY",
    "name": "Mont Joli Airport",
    "city": "Mont-Joli",
    "state_prov": "Quebec",
    "lat": 48.6086006165,
    "lon": -68.2080993652
},
"CYYZ": {
    "iata": "YYZ",
    "name": "Lester B. Pearson International Airport",
    "city": "Toronto",
    "state_prov": "Ontario",
    "lat": 43.6772003174,
    "lon": -79.6305999756
},
"CYZE": {
    "iata": "YZE",
    "name": "Gore Bay Manitoulin Airport",
    "city": "Gore Bay",
    "state_prov": "Ontario",
    "lat": 45.8852996826,
    "lon": -82.5678024292
},
"CYZF": {
    "iata": "YZF",
    "name": "Yellowknife Airport",
    "city": "Yellowknife",
    "state_prov": "Northwest-Territories",
    "lat": 62.4627990723,
    "lon": -114.4400024414
},
"CYZG": {
    "iata": "YZG",
    "name": "Salluit Airport",
    "city": "Salluit",
    "state_prov": "Quebec",
    "lat": 62.1794013977,
    "lon": -75.6671981812
},
"CYZH": {
    "iata": "YZH",
    "name": "Slave Lake Airport",
    "city": "Slave Lake",
    "state_prov": "Alberta",
    "lat": 55.2930984497,
    "lon": -114.777000427
},
"CYZP": {
    "iata": "YZP",
    "name": "Sandspit Airport",
    "city": "Sandspit",
    "state_prov": "British-Columbia",
    "lat": 53.2542991638,
    "lon": -131.813995361
},
"CYZR": {
    "iata": "YZR",
    "name": "Chris Hadfield Airport",
    "city": "Sarnia",
    "state_prov": "Ontario",
    "lat": 42.9994010925,
    "lon": -82.3088989258
},
"CYZS": {
    "iata": "YZS",
    "name": "Coral Harbour Airport",
    "city": "Coral Harbour",
    "state_prov": "Nunavut",
    "lat": 64.1932983398,
    "lon": -83.3593978882
},
"CYZT": {
    "iata": "YZT",
    "name": "Port Hardy Airport",
    "city": "Port Hardy",
    "state_prov": "British-Columbia",
    "lat": 50.6805992126,
    "lon": -127.3669967651
},
"CYZU": {
    "iata": "YZU",
    "name": "Whitecourt Airport",
    "city": "Whitecourt",
    "state_prov": "Alberta",
    "lat": 54.143901825,
    "lon": -115.7870025635
},
"CYZV": {
    "iata": "YZV",
    "name": "Sept-Iles Airport",
    "city": "Sept-Iles",
    "state_prov": "Quebec",
    "lat": 50.2233009338,
    "lon": -66.2656021118
},
"CYZW": {
    "iata": "YZW",
    "name": "Teslin Airport",
    "city": "Teslin",
    "state_prov": "Yukon",
    "lat": 60.1727981567,
    "lon": -132.7429962158
},
"CYZX": {
    "iata": "YZX",
    "name": "CFB Greenwood",
    "city": "Greenwood",
    "state_prov": "Nova-Scotia",
    "lat": 44.9844017029,
    "lon": -64.9169006348
},
"CYZY": {
    "iata": "YZY",
    "name": "Mackenzie Airport",
    "city": "Mackenzie",
    "state_prov": "British-Columbia",
    "lat": 55.3044013977,
    "lon": -123.132003784
},
"CZAM": {
    "iata": "YSN",
    "name": "Salmon Arm Airport",
    "city": "Salmon Arm",
    "state_prov": "British-Columbia",
    "lat": 50.682800293,
    "lon": -119.2289962769
},
"CZBD": {
    "iata": "ILF",
    "name": "Ilford Airport",
    "city": "Ilford",
    "state_prov": "Manitoba",
    "lat": 56.0614013672,
    "lon": -95.613899231
},
"CZBF": {
    "iata": "ZBF",
    "name": "Bathurst Airport",
    "city": "Bathurst",
    "state_prov": "New-Brunswick",
    "lat": 47.629699707,
    "lon": -65.738899231
},
"CZBM": {
    "iata": "ZBM",
    "name": "Bromont (Roland Desourdy) Airport",
    "city": "Bromont",
    "state_prov": "Quebec",
    "lat": 45.2907981873,
    "lon": -72.7414016724
},
"CZEM": {
    "iata": "ZEM",
    "name": "Eastmain River Airport",
    "city": "Eastmain River",
    "state_prov": "Quebec",
    "lat": 52.226398468,
    "lon": -78.5224990845
},
"CZFA": {
    "iata": "ZFA",
    "name": "Faro Airport",
    "city": "Faro",
    "state_prov": "Yukon",
    "lat": 62.2075004578,
    "lon": -133.3760070801
},
"CZFD": {
    "iata": "ZFD",
    "name": "Fond-Du-Lac Airport",
    "city": "Fond-Du-Lac",
    "state_prov": "Saskatchewan",
    "lat": 59.334400177,
    "lon": -107.1819992065
},
"CZFG": {
    "iata": "ZFG",
    "name": "Pukatawagan Airport",
    "city": "Pukatawagan",
    "state_prov": "Manitoba",
    "lat": 55.7491989136,
    "lon": -101.2659988403
},
"CZFM": {
    "iata": "ZFM",
    "name": "Fort Mcpherson Airport",
    "city": "Fort Mcpherson",
    "state_prov": "Northwest-Territories",
    "lat": 67.4075012207,
    "lon": -134.8609924316
},
"CZFN": {
    "iata": "ZFN",
    "name": "Tulita Airport",
    "city": "Tulita",
    "state_prov": "Northwest-Territories",
    "lat": 64.9096984863,
    "lon": -125.5729980469
},
"CZGF": {
    "iata": "ZGF",
    "name": "Grand Forks Airport",
    "city": "Grand Forks",
    "state_prov": "British-Columbia",
    "lat": 49.0155982971,
    "lon": -118.4309997559
},
"CZGI": {
    "iata": "ZGI",
    "name": "Gods River Airport",
    "city": "Gods River",
    "state_prov": "Manitoba",
    "lat": 54.8396987915,
    "lon": -94.0785980225
},
"CZGR": {
    "iata": "ZGR",
    "name": "Little Grand Rapids Airport",
    "city": "Little Grand Rapids",
    "state_prov": "Manitoba",
    "lat": 52.0456008911,
    "lon": -95.4657974243
},
"CZHP": {
    "iata": "ZHP",
    "name": "High Prairie Airport",
    "city": "High Prairie",
    "state_prov": "Alberta",
    "lat": 55.3936004639,
    "lon": -116.4749984741
},
"CZJG": {
    "iata": "ZJG",
    "name": "Jenpeg Airport",
    "city": "Jenpeg",
    "state_prov": "Manitoba",
    "lat": 54.518901825,
    "lon": -98.0460968018
},
"CZJN": {
    "iata": "ZJN",
    "name": "Swan River Airport",
    "city": "Swan River",
    "state_prov": "Manitoba",
    "lat": 52.1206016541,
    "lon": -101.236000061
},
"CZKE": {
    "iata": "ZKE",
    "name": "Kashechewan Airport",
    "city": "Kashechewan",
    "state_prov": "Ontario",
    "lat": 52.2825012207,
    "lon": -81.6778030396
},
"CZLQ": {
    "iata": "YTD",
    "name": "Thicket Portage Airport",
    "city": "Thicket Portage",
    "state_prov": "Manitoba",
    "lat": 55.318901062,
    "lon": -97.7078018188
},
"CZMD": {
    "iata": "MSA",
    "name": "Muskrat Dam Airport",
    "city": "Muskrat Dam",
    "state_prov": "Ontario",
    "lat": 53.4413986206,
    "lon": -91.762802124
},
"CZML": {
    "iata": "ZMH",
    "name": "South Cariboo Region / 108 Mile Airport",
    "city": "108 Mile",
    "state_prov": "British-Columbia",
    "lat": 51.7360992432,
    "lon": -121.333000183
},
"CZMN": {
    "iata": "PIW",
    "name": "Pikwitonei Airport",
    "city": "Pikwitonei",
    "state_prov": "Manitoba",
    "lat": 55.5889015198,
    "lon": -97.1641998291
},
"CZMT": {
    "iata": "ZMT",
    "name": "Masset Airport",
    "city": "Masset",
    "state_prov": "British-Columbia",
    "lat": 54.0275001526,
    "lon": -132.125
},
"CZNG": {
    "iata": "ZNG",
    "name": "Poplar River Airport",
    "city": "Poplar River",
    "state_prov": "Manitoba",
    "lat": 53,
    "lon": -97.2667007446
},
"CZNL": {
    "iata": "",
    "name": "Nelson Airport",
    "city": "Nelson",
    "state_prov": "British-Columbia",
    "lat": 49.4942016602,
    "lon": -117.3010025024
},
"CZPB": {
    "iata": "ZPB",
    "name": "Sachigo Lake Airport",
    "city": "Sachigo Lake",
    "state_prov": "Ontario",
    "lat": 53.8911018372,
    "lon": -92.1964035034
},
"CZPC": {
    "iata": "WPC",
    "name": "Pincher Creek Airport",
    "city": "Pincher Creek",
    "state_prov": "Alberta",
    "lat": 49.5205993652,
    "lon": -113.9970016479
},
"CZPO": {
    "iata": "ZPO",
    "name": "Pinehouse Lake Airport",
    "city": "Pinehouse Lake",
    "state_prov": "Saskatchewan",
    "lat": 55.5280990601,
    "lon": -106.582000732
},
"CZRJ": {
    "iata": "ZRJ",
    "name": "Round Lake (Weagamow Lake) Airport",
    "city": "Round Lake",
    "state_prov": "Ontario",
    "lat": 52.9435997009,
    "lon": -91.3127975464
},
"CZSJ": {
    "iata": "ZSJ",
    "name": "Sandy Lake Airport",
    "city": "Sandy Lake",
    "state_prov": "Ontario",
    "lat": 53.064201355,
    "lon": -93.3443984985
},
"CZSN": {
    "iata": "ZSN",
    "name": "South Indian Lake Airport",
    "city": "South Indian Lake",
    "state_prov": "Manitoba",
    "lat": 56.7928009033,
    "lon": -98.9072036743
},
"CZST": {
    "iata": "ZST",
    "name": "Stewart Airport",
    "city": "Stewart",
    "state_prov": "British-Columbia",
    "lat": 55.935410448,
    "lon": -129.982434511
},
"CZTA": {
    "iata": "YDV",
    "name": "Bloodvein River Airport",
    "city": "Bloodvein River",
    "state_prov": "Manitoba",
    "lat": 51.7832984924,
    "lon": -96.6999969482
},
"CZTM": {
    "iata": "ZTM",
    "name": "Shamattawa Airport",
    "city": "Shamattawa",
    "state_prov": "Manitoba",
    "lat": 55.8656005859,
    "lon": -92.0813980103
},
"CZUC": {
    "iata": "ZUC",
    "name": "Ignace Municipal Airport",
    "city": "Ignace",
    "state_prov": "Ontario",
    "lat": 49.4296989441,
    "lon": -91.7177963257
},
"CZUM": {
    "iata": "ZUM",
    "name": "Churchill Falls Airport",
    "city": "Churchill Falls",
    "state_prov": "Newfoundland-and-Labrador",
    "lat": 53.5619010925,
    "lon": -64.1063995361
},
"CZWH": {
    "iata": "ZWH",
    "name": "Lac Brochet Airport",
    "city": "Lac Brochet",
    "state_prov": "Manitoba",
    "lat": 58.6175003052,
    "lon": -101.46900177
},
"CZWL": {
    "iata": "ZWL",
    "name": "Wollaston Lake Airport",
    "city": "Wollaston Lake",
    "state_prov": "Saskatchewan",
    "lat": 58.1068992615,
    "lon": -103.1719970703
}

}